[
{"city":"Akron","country":"United States of America","value":6.3368,"population":565000,"latitude":41.0814,"longitude":-81.519,"slug":1671},{"city":"Albany","country":"United States of America","value":6.4457,"population":630000,"latitude":42.66,"longitude":-73.78,"slug":1672},{"city":"Albuquerque","country":"United States of America","value":6.8189,"population":915000,"latitude":35.1107,"longitude":-106.61,"slug":1673},{"city":"Allentown-Bethlehem","country":"United States of America","value":6.6373,"population":763000,"latitude":40.6091,"longitude":-75.476,"slug":1674},{"city":"Ann Arbor","country":"United States of America","value":5.793,"population":328000,"latitude":42.2776,"longitude":-83.7409,"slug":1675},{"city":"Antioch","country":"United States of America","value":5.8665,"population":353000,"latitude":38,"longitude":-121.81,"slug":1676},{"city":"Asheville","country":"United States of America","value":5.8693,"population":354000,"latitude":35.5799,"longitude":-82.5558,"slug":1677},{"city":"Atlanta","country":"United States of America","value":8.6661,"population":5803000,"latitude":33.76,"longitude":-84.4,"slug":1678},{"city":"Augusta-Richmond County","country":"United States of America","value":6.0958,"population":444000,"latitude":33.4671,"longitude":-81.9902,"slug":1679},{"city":"Austin","country":"United States of America","value":7.6271,"population":2053000,"latitude":30.27,"longitude":-97.74,"slug":1680},{"city":"Bakersfield","country":"United States of America","value":6.5381,"population":691000,"latitude":35.3573,"longitude":-119.0317,"slug":1681},{"city":"Baltimore","country":"United States of America","value":7.7515,"population":2325000,"latitude":39.2904,"longitude":-76.6122,"slug":1682},{"city":"Baton Rouge","country":"United States of America","value":6.5985,"population":734000,"latitude":30.4508,"longitude":-91.1546,"slug":1683},{"city":"Birmingham","country":"United States of America","value":6.7358,"population":842000,"latitude":33.5157,"longitude":-86.8011,"slug":1684},{"city":"Boise City","country":"United States of America","value":6.1026,"population":447000,"latitude":43.6195,"longitude":-116.2123,"slug":1685},{"city":"Bonita Springs-Naples","country":"United States of America","value":6.073,"population":434000,"latitude":26.3398,"longitude":-81.7787,"slug":1686},{"city":"Boston","country":"United States of America","value":8.3685,"population":4309000,"latitude":42.3479,"longitude":-71.0645,"slug":1687},{"city":"Bridgeport-Stamford","country":"United States of America","value":6.8596,"population":953000,"latitude":41.167,"longitude":-73.2048,"slug":1688},{"city":"Buffalo","country":"United States of America","value":6.7923,"population":891000,"latitude":42.8879,"longitude":-78.8716,"slug":1689},{"city":"Cape Coral","country":"United States of America","value":6.7464,"population":851000,"latitude":26.6396,"longitude":-81.9825,"slug":1690},{"city":"Charleston-North Charleston","country":"United States of America","value":6.5624,"population":708000,"latitude":32.7893,"longitude":-79.9863,"slug":1691},{"city":"Charlotte","country":"United States of America","value":7.6275,"population":2054000,"latitude":35.2271,"longitude":-80.8431,"slug":1692},{"city":"Chattanooga","country":"United States of America","value":6.0426,"population":421000,"latitude":35.0455,"longitude":-85.2673,"slug":1693},{"city":"Chicago","country":"United States of America","value":9.0899,"population":8865000,"latitude":41.85,"longitude":-87.6501,"slug":1694},{"city":"Cincinnati","country":"United States of America","value":7.4651,"population":1746000,"latitude":39.1047,"longitude":-84.5188,"slug":1695},{"city":"Cleveland","country":"United States of America","value":7.4748,"population":1763000,"latitude":41.4986,"longitude":-81.6874,"slug":1696},{"city":"Colorado Springs","country":"United States of America","value":6.5043,"population":668000,"latitude":38.8634,"longitude":-104.7919,"slug":1697},{"city":"Columbia, South Carolina","country":"United States of America","value":6.5737,"population":716000,"latitude":33.9995,"longitude":-81.0365,"slug":1698},{"city":"Columbus, Ohio","country":"United States of America","value":7.4049,"population":1644000,"latitude":39.9622,"longitude":-83.0002,"slug":1699},{"city":"Concord","country":"United States of America","value":6.5265,"population":683000,"latitude":37.978,"longitude":-122.0311,"slug":1700},{"city":"Concord","country":"United States of America","value":5.994,"population":401000,"latitude":35.4088,"longitude":-80.5795,"slug":1701},{"city":"Corpus Christi","country":"United States of America","value":5.8493,"population":347000,"latitude":27.7429,"longitude":-97.4019,"slug":1702},{"city":"Dallas-Fort Worth","country":"United States of America","value":8.7485,"population":6301000,"latitude":32.7254,"longitude":-97.3209,"slug":1703},{"city":"Dayton","country":"United States of America","value":6.608,"population":741000,"latitude":39.7584,"longitude":-84.1929,"slug":1704},{"city":"Daytona Beach-Port Orange","country":"United States of America","value":6.1654,"population":476000,"latitude":29.1383,"longitude":-80.9956,"slug":1705},{"city":"Denton-Lewisville","country":"United States of America","value":6.0981,"population":445000,"latitude":33.0467,"longitude":-96.9941,"slug":1706},{"city":"Denver-Aurora","country":"United States of America","value":7.947,"population":2827000,"latitude":39.7343,"longitude":-104.9831,"slug":1707},{"city":"Des Moines","country":"United States of America","value":6.2989,"population":544000,"latitude":41.6005,"longitude":-93.6091,"slug":1708},{"city":"Detroit","country":"United States of America","value":8.1741,"population":3548000,"latitude":42.3871,"longitude":-83.1026,"slug":1709},{"city":"Durham","country":"United States of America","value":6.0355,"population":418000,"latitude":35.9886,"longitude":-78.9072,"slug":1710},{"city":"El Paso","country":"United States of America","value":6.8575,"population":951000,"latitude":31.7776,"longitude":-106.4425,"slug":1711},{"city":"Fayetteville","country":"United States of America","value":5.8493,"population":347000,"latitude":35.0667,"longitude":-78.9176,"slug":1712},{"city":"Fayetteville-Springdale","country":"United States of America","value":6.2226,"population":504000,"latitude":36.1867,"longitude":-94.1295,"slug":1713},{"city":"Flint","country":"United States of America","value":5.8435,"population":345000,"latitude":43.0276,"longitude":-83.694,"slug":1714},{"city":"Fort Collins","country":"United States of America","value":5.8201,"population":337000,"latitude":40.5592,"longitude":-105.0783,"slug":1715},{"city":"Fort Wayne","country":"United States of America","value":5.8289,"population":340000,"latitude":41.0783,"longitude":-85.1265,"slug":1716},{"city":"Fresno","country":"United States of America","value":6.6451,"population":769000,"latitude":36.7545,"longitude":-119.7711,"slug":1717},{"city":"Grand Rapids","country":"United States of America","value":6.3953,"population":599000,"latitude":42.9564,"longitude":-85.6649,"slug":1718},{"city":"Greensboro","country":"United States of America","value":5.8889,"population":361000,"latitude":36.0732,"longitude":-79.7918,"slug":1719},{"city":"Greenville","country":"United States of America","value":6.271,"population":529000,"latitude":34.8498,"longitude":-82.3973,"slug":1720},{"city":"Harrisburg","country":"United States of America","value":6.2953,"population":542000,"latitude":40.2717,"longitude":-76.885,"slug":1721},{"city":"Hartford","country":"United States of America","value":6.9068,"population":999000,"latitude":41.7637,"longitude":-72.6851,"slug":1722},{"city":"Honolulu","country":"United States of America","value":6.7935,"population":892000,"latitude":21.309,"longitude":-157.8262,"slug":1723},{"city":"Houston","country":"United States of America","value":8.7595,"population":6371000,"latitude":29.7602,"longitude":-95.3694,"slug":1724},{"city":"Huntsville","country":"United States of America","value":5.9506,"population":384000,"latitude":34.7297,"longitude":-86.5898,"slug":1725},{"city":"Indianapolis","country":"United States of America","value":7.4994,"population":1807000,"latitude":39.7909,"longitude":-86.1477,"slug":1726},{"city":"Indio-Cathedral City-Palm Springs","country":"United States of America","value":6.1463,"population":467000,"latitude":33.7199,"longitude":-116.2319,"slug":1727},{"city":"Jackson, Mississippi","country":"United States of America","value":6.0403,"population":420000,"latitude":32.2957,"longitude":-90.184,"slug":1728},{"city":"Jacksonville, Florida","country":"United States of America","value":7.1546,"population":1280000,"latitude":30.3322,"longitude":-81.6557,"slug":1729},{"city":"Kansas City","country":"United States of America","value":7.4301,"population":1686000,"latitude":39.1142,"longitude":-94.6275,"slug":1730},{"city":"Kissimmee","country":"United States of America","value":6.2691,"population":528000,"latitude":28.3047,"longitude":-81.4167,"slug":1731},{"city":"Knoxville","country":"United States of America","value":6.608,"population":741000,"latitude":35.9607,"longitude":-83.9277,"slug":1732},{"city":"Lafayette","country":"United States of America","value":5.8805,"population":358000,"latitude":30.2242,"longitude":-92.0197,"slug":1733},{"city":"Lakeland","country":"United States of America","value":5.8406,"population":344000,"latitude":28.0412,"longitude":-81.959,"slug":1734},{"city":"Lancaster","country":"United States of America","value":6.2086,"population":497000,"latitude":40.0379,"longitude":-76.3055,"slug":1735},{"city":"Lancaster-Palmdale","country":"United States of America","value":6.1964,"population":491000,"latitude":34.6869,"longitude":-118.1509,"slug":1736},{"city":"Lansing","country":"United States of America","value":5.7869,"population":326000,"latitude":42.7284,"longitude":-84.5514,"slug":1737},{"city":"Laredo","country":"United States of America","value":5.7526,"population":315000,"latitude":27.5244,"longitude":-99.4906,"slug":1738},{"city":"Las Vegas","country":"United States of America","value":7.9006,"population":2699000,"latitude":36.1699,"longitude":-115.1398,"slug":1739},{"city":"Lexington-Fayette","country":"United States of America","value":5.8111,"population":334000,"latitude":38.0296,"longitude":-84.4946,"slug":1740},{"city":"Little Rock","country":"United States of America","value":6.2422,"population":514000,"latitude":34.742,"longitude":-92.2754,"slug":1741},{"city":"Los Angeles-Long Beach-Santa Ana","country":"United States of America","value":9.4292,"population":12447000,"latitude":34.0317,"longitude":-118.2417,"slug":1742},{"city":"Louisville","country":"United States of America","value":6.993,"population":1089000,"latitude":38.2419,"longitude":-85.7631,"slug":1743},{"city":"Madison","country":"United States of America","value":6.1883,"population":487000,"latitude":43.0697,"longitude":-89.4001,"slug":1744},{"city":"McAllen","country":"United States of America","value":6.9197,"population":1012000,"latitude":26.2163,"longitude":-98.2364,"slug":1745},{"city":"Memphis","country":"United States of America","value":7.0475,"population":1150000,"latitude":35.1408,"longitude":-90.0475,"slug":1746},{"city":"Miami","country":"United States of America","value":8.7196,"population":6122000,"latitude":25.7891,"longitude":-80.204,"slug":1747},{"city":"Milwaukee","country":"United States of America","value":7.2717,"population":1439000,"latitude":43.0389,"longitude":-87.9065,"slug":1748},{"city":"Minneapolis-St. Paul","country":"United States of America","value":7.9814,"population":2926000,"latitude":44.9731,"longitude":-93.2699,"slug":1749},{"city":"Mission Viejo","country":"United States of America","value":6.4552,"population":636000,"latitude":33.6,"longitude":-117.672,"slug":1750},{"city":"Mobile","country":"United States of America","value":5.8081,"population":333000,"latitude":30.6944,"longitude":-88.0431,"slug":1751},{"city":"Modesto","country":"United States of America","value":6.0186,"population":411000,"latitude":37.6615,"longitude":-120.9945,"slug":1752},{"city":"Montgomery","country":"United States of America","value":5.8636,"population":352000,"latitude":32.372,"longitude":-86.3045,"slug":1753},{"city":"Myrtle Beach","country":"United States of America","value":5.9322,"population":377000,"latitude":33.6891,"longitude":-78.8867,"slug":1754},{"city":"Nashville-Davidson","country":"United States of America","value":7.1301,"population":1249000,"latitude":36.161,"longitude":-86.783,"slug":1755},{"city":"New Haven","country":"United States of America","value":6.3852,"population":593000,"latitude":41.3019,"longitude":-72.9299,"slug":1756},{"city":"New Orleans","country":"United States of America","value":6.8997,"population":992000,"latitude":29.9547,"longitude":-90.0751,"slug":1757},{"city":"New York-Newark","country":"United States of America","value":9.8418,"population":18804000,"latitude":40.717,"longitude":-74.0037,"slug":1758},{"city":"Ogden-Layton","country":"United States of America","value":6.5667,"population":711000,"latitude":41.223,"longitude":-111.9738,"slug":1759},{"city":"Oklahoma City","country":"United States of America","value":6.8967,"population":989000,"latitude":35.4675,"longitude":-97.5164,"slug":1760},{"city":"Omaha","country":"United States of America","value":6.7274,"population":835000,"latitude":41.2586,"longitude":-95.9378,"slug":1761},{"city":"Orlando","country":"United States of America","value":7.5827,"population":1964000,"latitude":28.5383,"longitude":-81.3792,"slug":1762},{"city":"Oxnard","country":"United States of America","value":5.9839,"population":397000,"latitude":34.1975,"longitude":-119.1771,"slug":1763},{"city":"Palm Bay-Melbourne","country":"United States of America","value":6.2519,"population":519000,"latitude":28.059,"longitude":-80.5983,"slug":1764},{"city":"Pensacola","country":"United States of America","value":5.8721,"population":355000,"latitude":30.4213,"longitude":-87.2169,"slug":1765},{"city":"Philadelphia","country":"United States of America","value":8.6512,"population":5717000,"latitude":39.9523,"longitude":-75.1638,"slug":1766},{"city":"Phoenix-Mesa","country":"United States of America","value":8.4143,"population":4511000,"latitude":33.4495,"longitude":-112.0747,"slug":1767},{"city":"Pittsburgh","country":"United States of America","value":7.4407,"population":1704000,"latitude":40.4418,"longitude":-79.9882,"slug":1768},{"city":"Port St. Lucie","country":"United States of America","value":6.2558,"population":521000,"latitude":27.2939,"longitude":-80.3503,"slug":1769},{"city":"Portland","country":"United States of America","value":7.6737,"population":2151000,"latitude":45.5215,"longitude":-122.6799,"slug":1770},{"city":"Poughkeepsie-Newburgh","country":"United States of America","value":6.2285,"population":507000,"latitude":41.6018,"longitude":-73.9656,"slug":1771},{"city":"Providence","country":"United States of America","value":7.0901,"population":1200000,"latitude":41.824,"longitude":-71.4177,"slug":1772},{"city":"Provo-Orem","country":"United States of America","value":6.6412,"population":766000,"latitude":40.2338,"longitude":-111.6585,"slug":1773},{"city":"Raleigh","country":"United States of America","value":7.2752,"population":1444000,"latitude":35.7789,"longitude":-78.6375,"slug":1774},{"city":"Reno","country":"United States of America","value":6.2226,"population":504000,"latitude":39.5296,"longitude":-119.8138,"slug":1775},{"city":"Richmond","country":"United States of America","value":7.0076,"population":1105000,"latitude":37.5432,"longitude":-77.4382,"slug":1776},{"city":"Riverside-San Bernardino","country":"United States of America","value":7.8116,"population":2469000,"latitude":33.9534,"longitude":-117.3962,"slug":1777},{"city":"Rochester","country":"United States of America","value":6.6107,"population":743000,"latitude":43.1569,"longitude":-77.6046,"slug":1778},{"city":"Rockford","country":"United States of America","value":5.7807,"population":324000,"latitude":42.2713,"longitude":-89.0957,"slug":1779},{"city":"Round Lake Beach-McHenry-Grayslake","country":"United States of America","value":5.9135,"population":370000,"latitude":42.354,"longitude":-88.1005,"slug":1780},{"city":"Sacramento","country":"United States of America","value":7.6606,"population":2123000,"latitude":38.5816,"longitude":-121.4944,"slug":1781},{"city":"Salt Lake City","country":"United States of America","value":7.0639,"population":1169000,"latitude":40.7547,"longitude":-111.8926,"slug":1782},{"city":"San Antonio","country":"United States of America","value":7.7493,"population":2320000,"latitude":29.4241,"longitude":-98.4935,"slug":1783},{"city":"San Diego","country":"United States of America","value":8.0867,"population":3251000,"latitude":32.7153,"longitude":-117.1573,"slug":1784},{"city":"San Francisco-Oakland","country":"United States of America","value":8.1059,"population":3314000,"latitude":37.7599,"longitude":-122.4374,"slug":1785},{"city":"San Jose","country":"United States of America","value":7.4905,"population":1791000,"latitude":37.3394,"longitude":-121.895,"slug":1786},{"city":"Santa Clarita","country":"United States of America","value":5.9713,"population":392000,"latitude":34.3917,"longitude":-118.5426,"slug":1787},{"city":"Santa Rosa","country":"United States of America","value":5.8021,"population":331000,"latitude":38.4405,"longitude":-122.7144,"slug":1788},{"city":"Sarasota-Bradenton","country":"United States of America","value":6.6012,"population":736000,"latitude":27.3364,"longitude":-82.5307,"slug":1789},{"city":"Savannah","country":"United States of America","value":5.7807,"population":324000,"latitude":32.0671,"longitude":-81.1005,"slug":1790},{"city":"Scranton","country":"United States of America","value":5.9269,"population":375000,"latitude":41.4106,"longitude":-75.6674,"slug":1791},{"city":"Seattle","country":"United States of America","value":8.1412,"population":3433000,"latitude":47.6264,"longitude":-122.3331,"slug":1792},{"city":"Shreveport","country":"United States of America","value":5.7746,"population":322000,"latitude":32.468,"longitude":-93.7711,"slug":1793},{"city":"Spokane","country":"United States of America","value":6.1026,"population":447000,"latitude":47.6733,"longitude":-117.4103,"slug":1794},{"city":"Springfield, Massachusett, Connecticut","country":"United States of America","value":6.5058,"population":669000,"latitude":42.1015,"longitude":-72.5898,"slug":1795},{"city":"Springfield, Missouri","country":"United States of America","value":5.8493,"population":347000,"latitude":37.2083,"longitude":-93.2914,"slug":1796},{"city":"St. Louis","country":"United States of America","value":7.7021,"population":2213000,"latitude":38.6286,"longitude":-90.1972,"slug":1797},{"city":"Stockton","country":"United States of America","value":6.0776,"population":436000,"latitude":37.9577,"longitude":-121.2908,"slug":1798},{"city":"Syracuse","country":"United States of America","value":6.0403,"population":420000,"latitude":43.0468,"longitude":-76.1475,"slug":1799},{"city":"Tampa-St. Petersburg","country":"United States of America","value":7.9645,"population":2877000,"latitude":27.9475,"longitude":-82.4584,"slug":1800},{"city":"Temecula-Murrieta","country":"United States of America","value":6.7429,"population":848000,"latitude":33.5364,"longitude":-117.1631,"slug":1801},{"city":"The Woodlands","country":"United States of America","value":6.3456,"population":570000,"latitude":30.163,"longitude":-95.4558,"slug":1802},{"city":"Toledo","country":"United States of America","value":6.2324,"population":509000,"latitude":41.6565,"longitude":-83.5499,"slug":1803},{"city":"Trenton","country":"United States of America","value":5.7961,"population":329000,"latitude":40.2171,"longitude":-74.7429,"slug":1804},{"city":"Tucson","country":"United States of America","value":6.8896,"population":982000,"latitude":32.2145,"longitude":-110.9182,"slug":1805},{"city":"Tulsa","country":"United States of America","value":6.6412,"population":766000,"latitude":36.1313,"longitude":-95.9373,"slug":1806},{"city":"Victorville-Hesperia-Apple Valley","country":"United States of America","value":6.286,"population":537000,"latitude":34.534,"longitude":-117.2958,"slug":1807},{"city":"Virginia Beach","country":"United States of America","value":7.2978,"population":1477000,"latitude":36.8345,"longitude":-76.0872,"slug":1808},{"city":"Visalia","country":"United States of America","value":5.994,"population":401000,"latitude":36.3241,"longitude":-119.3073,"slug":1809},{"city":"Washington, D.C.","country":"United States of America","value":8.5796,"population":5322000,"latitude":38.8951,"longitude":-77.0364,"slug":1810},{"city":"Wichita","country":"United States of America","value":6.2672,"population":527000,"latitude":37.6888,"longitude":-97.3362,"slug":1811},{"city":"Winston-Salem","country":"United States of America","value":6.2324,"population":509000,"latitude":36.1028,"longitude":-80.2605,"slug":1812},{"city":"Worcester","country":"United States of America","value":6.3063,"population":548000,"latitude":42.2626,"longitude":-71.8023,"slug":1813},{"city":"Youngstown","country":"United States of America","value":5.8777,"population":357000,"latitude":41.0963,"longitude":-80.6493,"slug":1814}
]