[
  {
    "fua_name": "A Coruña",
    "fua_longitude": "-8.4",
    "fua_latitude": "43.36",
    "nb_patents": 626
  },
  {
    "fua_name": "Aachen",
    "fua_longitude": "6.0839",
    "fua_latitude": "50.7753",
    "nb_patents": 9826
  },
  {
    "fua_name": "Aalborg",
    "fua_longitude": "9.92",
    "fua_latitude": "57.05",
    "nb_patents": 2710
  },
  {
    "fua_name": "Aberdeen",
    "fua_longitude": "-2.0943",
    "fua_latitude": "57.1497",
    "nb_patents": 3605
  },
  {
    "fua_name": "Aberdeen - Sd",
    "fua_longitude": "-2.11",
    "fua_latitude": "57.15",
    "nb_patents": null
  },
  {
    "fua_name": "Abilene - Tx",
    "fua_longitude": "-99.7331",
    "fua_latitude": "32.4487",
    "nb_patents": null
  },
  {
    "fua_name": "Adana",
    "fua_longitude": "35.32",
    "fua_latitude": "36.99",
    "nb_patents": 165
  },
  {
    "fua_name": "Ahmedabad",
    "fua_longitude": "72.5714",
    "fua_latitude": "23.0225",
    "nb_patents": 2759
  },
  {
    "fua_name": "Aichi",
    "fua_longitude": "136.91",
    "fua_latitude": "35.18",
    "nb_patents": 52889
  },
  {
    "fua_name": "Akita",
    "fua_longitude": "140.13",
    "fua_latitude": "39.72",
    "nb_patents": 667
  },
  {
    "fua_name": "Albacete",
    "fua_longitude": "-1.85",
    "fua_latitude": "38.99",
    "nb_patents": 142
  },
  {
    "fua_name": "Albany - Ga",
    "fua_longitude": "-73.75",
    "fua_latitude": "42.65",
    "nb_patents": null
  },
  {
    "fua_name": "Albany-Schenectady-Amsterdam - Ny",
    "fua_longitude": "-73.75",
    "fua_latitude": "42.65",
    "nb_patents": 13584
  },
  {
    "fua_name": "Albuquerque - Nm",
    "fua_longitude": "-106.65",
    "fua_latitude": "35.08",
    "nb_patents": 3354
  },
  {
    "fua_name": "Alicante/Alacant - Elche/Elx",
    "fua_longitude": "-0.48",
    "fua_latitude": "38.35",
    "nb_patents": 1261
  },
  {
    "fua_name": "Almeria",
    "fua_longitude": "-2.46",
    "fua_latitude": "36.84",
    "nb_patents": 216
  },
  {
    "fua_name": "Alpena - Mi",
    "fua_longitude": "-83.4328",
    "fua_latitude": "45.0617",
    "nb_patents": null
  },
  {
    "fua_name": "Amarillo - Tx",
    "fua_longitude": "-101.83",
    "fua_latitude": "35.22",
    "nb_patents": null
  },
  {
    "fua_name": "Amiens",
    "fua_longitude": "2.2901",
    "fua_latitude": "49.895",
    "nb_patents": 1073
  },
  {
    "fua_name": "Amsterdam",
    "fua_longitude": "4.9",
    "fua_latitude": "52.37",
    "nb_patents": 12023
  },
  {
    "fua_name": "Anchorage - Ak",
    "fua_longitude": "-149.9",
    "fua_latitude": "61.21",
    "nb_patents": null
  },
  {
    "fua_name": "Ancona",
    "fua_longitude": "13.5189",
    "fua_latitude": "43.6159",
    "nb_patents": 942
  },
  {
    "fua_name": "Andorra la Vella",
    "fua_longitude": "1.5218",
    "fua_latitude": "42.5063",
    "nb_patents": 104
  },
  {
    "fua_name": "Angers",
    "fua_longitude": "-0.5632",
    "fua_latitude": "47.4784",
    "nb_patents": 1240
  },
  {
    "fua_name": "Ankara",
    "fua_longitude": "32.8597",
    "fua_latitude": "39.9334",
    "nb_patents": 1529
  },
  {
    "fua_name": "Annecy (FR)/Genève (CH)",
    "fua_longitude": "6.17",
    "fua_latitude": "46.2",
    "nb_patents": 4240
  },
  {
    "fua_name": "Antalya",
    "fua_longitude": "30.69",
    "fua_latitude": "36.9",
    "nb_patents": 142
  },
  {
    "fua_name": "Antwerpen",
    "fua_longitude": "4.4",
    "fua_latitude": "51.22",
    "nb_patents": 4921
  },
  {
    "fua_name": "Aomori",
    "fua_longitude": "140.74",
    "fua_latitude": "40.82444",
    "nb_patents": 564
  },
  {
    "fua_name": "Appleton-Oshkosh-Neenah - Wi",
    "fua_longitude": "-88.4068",
    "fua_latitude": "44.2611",
    "nb_patents": null
  },
  {
    "fua_name": "Arad",
    "fua_longitude": "34.86",
    "fua_latitude": "31.92",
    "nb_patents": 17
  },
  {
    "fua_name": "Århus",
    "fua_longitude": "10.21",
    "fua_latitude": "56.16",
    "nb_patents": 5538
  },
  {
    "fua_name": "Arnhem - Nijmegen",
    "fua_longitude": "5.91",
    "fua_latitude": "51.98",
    "nb_patents": 3502
  },
  {
    "fua_name": "Aschaffenburg",
    "fua_longitude": "9.1447",
    "fua_latitude": "49.976",
    "nb_patents": 4525
  },
  {
    "fua_name": "Asheville-Brevard - Nc",
    "fua_longitude": "-82.55",
    "fua_latitude": "35.58",
    "nb_patents": 1336
  },
  {
    "fua_name": "Athina",
    "fua_longitude": "23.73",
    "fua_latitude": "37.98",
    "nb_patents": 2184
  },
  {
    "fua_name": "Atlanta-Sandy Springs-Gainesville - Ga-Al",
    "fua_longitude": "-84.39",
    "fua_latitude": "33.75",
    "nb_patents": null
  },
  {
    "fua_name": "Auckland",
    "fua_longitude": "174.76",
    "fua_latitude": "-36.85",
    "nb_patents": 4191
  },
  {
    "fua_name": "Augsburg",
    "fua_longitude": "10.89",
    "fua_latitude": "48.37",
    "nb_patents": 6821
  },
  {
    "fua_name": "Augusta-Richmond County - Ga-Sc",
    "fua_longitude": "-81.97",
    "fua_latitude": "33.47",
    "nb_patents": 923
  },
  {
    "fua_name": "Austin-Round Rock - Tx",
    "fua_longitude": "-97.6789",
    "fua_latitude": "30.5083",
    "nb_patents": 19655
  },
  {
    "fua_name": "Australian Capital Territory",
    "fua_longitude": "149.13",
    "fua_latitude": "-35.28",
    "nb_patents": 1509
  },
  {
    "fua_name": "Bacau",
    "fua_longitude": "26.92",
    "fua_latitude": "46.58",
    "nb_patents": 20
  },
  {
    "fua_name": "Badajoz",
    "fua_longitude": "-6.97",
    "fua_latitude": "38.88",
    "nb_patents": 113
  },
  {
    "fua_name": "Bangalore",
    "fua_longitude": "77.59",
    "fua_latitude": "12.97",
    "nb_patents": 12891
  },
  {
    "fua_name": "Bangor - Me",
    "fua_longitude": "-68.77",
    "fua_latitude": "44.8",
    "nb_patents": 535
  },
  {
    "fua_name": "Barcelona",
    "fua_longitude": "2.17",
    "fua_latitude": "41.38",
    "nb_patents": 11240
  },
  {
    "fua_name": "Bari",
    "fua_longitude": "16.85",
    "fua_latitude": "41.12",
    "nb_patents": 750
  },
  {
    "fua_name": "Basel",
    "fua_longitude": "7.59",
    "fua_latitude": "47.56",
    "nb_patents": 18826
  },
  {
    "fua_name": "Baton Rouge-Pierre Part - La",
    "fua_longitude": "-91.1871",
    "fua_latitude": "30.4515",
    "nb_patents": 2733
  },
  {
    "fua_name": "Bayreuth",
    "fua_longitude": "11.571",
    "fua_latitude": "49.9456",
    "nb_patents": 2039
  },
  {
    "fua_name": "Beaumont-Port Arthur - Tx",
    "fua_longitude": "-94.13",
    "fua_latitude": "30.08",
    "nb_patents": 805
  },
  {
    "fua_name": "Beersheba",
    "fua_longitude": "34.79",
    "fua_latitude": "31.25",
    "nb_patents": 4066
  },
  {
    "fua_name": "Beijing",
    "fua_longitude": "116.4074",
    "fua_latitude": "39.9042",
    "nb_patents": 63784
  },
  {
    "fua_name": "Belem",
    "fua_longitude": "103.8048",
    "fua_latitude": "1.4451",
    "nb_patents": 61
  },
  {
    "fua_name": "Belfast",
    "fua_longitude": "-5.93",
    "fua_latitude": "54.6",
    "nb_patents": 1702
  },
  {
    "fua_name": "Belo Horizonte",
    "fua_longitude": "-43.94",
    "fua_latitude": "-19.92",
    "nb_patents": 944
  },
  {
    "fua_name": "Bend-Prineville - Or",
    "fua_longitude": "-121.31",
    "fua_latitude": "44.06",
    "nb_patents": 763
  },
  {
    "fua_name": "Bergamo",
    "fua_longitude": "9.67",
    "fua_latitude": "45.69",
    "nb_patents": 2571
  },
  {
    "fua_name": "Bergen",
    "fua_longitude": "5.32",
    "fua_latitude": "60.39",
    "nb_patents": 1854
  },
  {
    "fua_name": "Berlin",
    "fua_longitude": "13.405",
    "fua_latitude": "52.52",
    "nb_patents": 30719
  },
  {
    "fua_name": "Bern",
    "fua_longitude": "5.87",
    "fua_latitude": "45.28",
    "nb_patents": 5659
  },
  {
    "fua_name": "Besancon",
    "fua_longitude": "6.0182",
    "fua_latitude": "47.2488",
    "nb_patents": 2175
  },
  {
    "fua_name": "Bialystok",
    "fua_longitude": "23.16",
    "fua_latitude": "53.13",
    "nb_patents": 82
  },
  {
    "fua_name": "Bielefeld",
    "fua_longitude": "8.53",
    "fua_latitude": "52.03",
    "nb_patents": 1752
  },
  {
    "fua_name": "Bielsko-Biala",
    "fua_longitude": "19.0444",
    "fua_latitude": "49.8225",
    "nb_patents": 195
  },
  {
    "fua_name": "Bilbao",
    "fua_longitude": "-2.94",
    "fua_latitude": "43.26",
    "nb_patents": 1044
  },
  {
    "fua_name": "Billings - Mt",
    "fua_longitude": "-108.5",
    "fua_latitude": "45.78",
    "nb_patents": null
  },
  {
    "fua_name": "Birmingham-Hoover-Cullman - Al",
    "fua_longitude": "-86.8",
    "fua_latitude": "33.81",
    "nb_patents": null
  },
  {
    "fua_name": "Bismarck - Nd",
    "fua_longitude": "-100.7837",
    "fua_latitude": "46.8083",
    "nb_patents": null
  },
  {
    "fua_name": "Blackburn - Blackpool - Preston",
    "fua_longitude": "-2.9781",
    "fua_latitude": "53.7649",
    "nb_patents": 3062
  },
  {
    "fua_name": "Bocholt",
    "fua_longitude": "6.6155",
    "fua_latitude": "51.8387",
    "nb_patents": 1741
  },
  {
    "fua_name": "Boise City-Nampa - Id",
    "fua_longitude": "-116.2",
    "fua_latitude": "43.62",
    "nb_patents": 4343
  },
  {
    "fua_name": "Bologna",
    "fua_longitude": "11.34",
    "fua_latitude": "44.5",
    "nb_patents": 5110
  },
  {
    "fua_name": "Bonn",
    "fua_longitude": "7.1",
    "fua_latitude": "50.73",
    "nb_patents": 7674
  },
  {
    "fua_name": "Bordeaux",
    "fua_longitude": "-0.57",
    "fua_latitude": "44.83",
    "nb_patents": 4083
  },
  {
    "fua_name": "Boston-Worcester-Manchester - Ma-Nh",
    "fua_longitude": "-71.0589",
    "fua_latitude": "42.3601",
    "nb_patents": 167664
  },
  {
    "fua_name": "Botosani",
    "fua_longitude": "26.66",
    "fua_latitude": "47.74",
    "nb_patents": 5
  },
  {
    "fua_name": "Bournemouth",
    "fua_longitude": "-1.88",
    "fua_latitude": "50.72",
    "nb_patents": 1039
  },
  {
    "fua_name": "Bradford",
    "fua_longitude": "-1.75",
    "fua_latitude": "53.79",
    "nb_patents": 1131
  },
  {
    "fua_name": "Braila",
    "fua_longitude": "27.668333",
    "fua_latitude": "46.231953",
    "nb_patents": 7
  },
  {
    "fua_name": "Brasilia",
    "fua_longitude": "-47.93",
    "fua_latitude": "-15.77",
    "nb_patents": 176
  },
  {
    "fua_name": "Brasov",
    "fua_longitude": "25.61",
    "fua_latitude": "45.66",
    "nb_patents": 98
  },
  {
    "fua_name": "Bratislava",
    "fua_longitude": "17.1077",
    "fua_latitude": "48.1486",
    "nb_patents": 639
  },
  {
    "fua_name": "Braunschweig-Salzgitter-Wolfsburg",
    "fua_longitude": "10.5267",
    "fua_latitude": "52.2689",
    "nb_patents": 9931
  },
  {
    "fua_name": "Breda",
    "fua_longitude": "4.75",
    "fua_latitude": "51.57",
    "nb_patents": 2515
  },
  {
    "fua_name": "Bremen",
    "fua_longitude": "8.81",
    "fua_latitude": "53.08",
    "nb_patents": 5187
  },
  {
    "fua_name": "Bremerhaven",
    "fua_longitude": "8.58",
    "fua_latitude": "53.55",
    "nb_patents": 531
  },
  {
    "fua_name": "Brescia",
    "fua_longitude": "10.21",
    "fua_latitude": "45.54",
    "nb_patents": 2314
  },
  {
    "fua_name": "Brest",
    "fua_longitude": "-4.49",
    "fua_latitude": "48.39",
    "nb_patents": 1536
  },
  {
    "fua_name": "Brighton and Hove",
    "fua_longitude": "-0.14",
    "fua_latitude": "50.82",
    "nb_patents": 687
  },
  {
    "fua_name": "Bristol",
    "fua_longitude": "-2.58",
    "fua_latitude": "51.45",
    "nb_patents": 6264
  },
  {
    "fua_name": "Brno",
    "fua_longitude": "16.6068",
    "fua_latitude": "49.1951",
    "nb_patents": 870
  },
  {
    "fua_name": "Brugges",
    "fua_longitude": "3.23",
    "fua_latitude": "51.21",
    "nb_patents": 939
  },
  {
    "fua_name": "Bruxelles / Brussel",
    "fua_longitude": "4.35",
    "fua_latitude": "50.85",
    "nb_patents": 20771
  },
  {
    "fua_name": "Bucuresti",
    "fua_longitude": "26.1",
    "fua_latitude": "44.43",
    "nb_patents": 711
  },
  {
    "fua_name": "Budapest",
    "fua_longitude": "19.0402",
    "fua_latitude": "47.4979",
    "nb_patents": 6573
  },
  {
    "fua_name": "Buffalo-Niagara-Cattaraugus - Ny",
    "fua_longitude": "-78.88",
    "fua_latitude": "42.89",
    "nb_patents": 5795
  },
  {
    "fua_name": "Burgas",
    "fua_longitude": "-2.75",
    "fua_latitude": "41.63",
    "nb_patents": 36
  },
  {
    "fua_name": "Burgos",
    "fua_longitude": "-3.7",
    "fua_latitude": "42.34",
    "nb_patents": 203
  },
  {
    "fua_name": "Burlington-South Burlington - Vt",
    "fua_longitude": "-73.2213",
    "fua_latitude": "44.4763",
    "nb_patents": 2321
  },
  {
    "fua_name": "Bursa",
    "fua_longitude": "29.0671",
    "fua_latitude": "40.1828",
    "nb_patents": 693
  },
  {
    "fua_name": "Busan",
    "fua_longitude": "129.0756",
    "fua_latitude": "35.1796",
    "nb_patents": 7946
  },
  {
    "fua_name": "Buzau",
    "fua_longitude": "26.83",
    "fua_latitude": "45.15",
    "nb_patents": 11
  },
  {
    "fua_name": "Bydgoszcz - Torún",
    "fua_longitude": "18.5984",
    "fua_latitude": "53.0138",
    "nb_patents": 124
  },
  {
    "fua_name": "Cádiz",
    "fua_longitude": "-6.29",
    "fua_latitude": "36.52",
    "nb_patents": 319
  },
  {
    "fua_name": "Caen",
    "fua_longitude": "-0.3707",
    "fua_latitude": "49.1829",
    "nb_patents": 1654
  },
  {
    "fua_name": "Cagliari",
    "fua_longitude": "9.12166",
    "fua_latitude": "39.22384",
    "nb_patents": 256
  },
  {
    "fua_name": "Calgary",
    "fua_longitude": "-114.0719",
    "fua_latitude": "51.0447",
    "nb_patents": 5019
  },
  {
    "fua_name": "Cambridge",
    "fua_longitude": "0.1218",
    "fua_latitude": "52.2053",
    "nb_patents": 15581
  },
  {
    "fua_name": "Cape Girardeau-Jackson - Mo-Il",
    "fua_longitude": "-89.56",
    "fua_latitude": "37.31",
    "nb_patents": null
  },
  {
    "fua_name": "Cape Town",
    "fua_longitude": "18.4241",
    "fua_latitude": "-33.9249",
    "nb_patents": 2343
  },
  {
    "fua_name": "Cardiff",
    "fua_longitude": "-3.1791",
    "fua_latitude": "51.4816",
    "nb_patents": 2546
  },
  {
    "fua_name": "Casper - Wy",
    "fua_longitude": "-106.3131",
    "fua_latitude": "42.8666",
    "nb_patents": 600
  },
  {
    "fua_name": "Castellón",
    "fua_longitude": "-0.04",
    "fua_latitude": "39.99",
    "nb_patents": 416
  },
  {
    "fua_name": "Catania",
    "fua_longitude": "15.09",
    "fua_latitude": "37.51",
    "nb_patents": 405
  },
  {
    "fua_name": "Cedar Rapids - Ia",
    "fua_longitude": "-91.67",
    "fua_latitude": "41.97",
    "nb_patents": 2243
  },
  {
    "fua_name": "Champaign-Urbana - Il",
    "fua_longitude": "-88.26",
    "fua_latitude": "40.11",
    "nb_patents": 2180
  },
  {
    "fua_name": "Changchun",
    "fua_longitude": "125.35",
    "fua_latitude": "43.89",
    "nb_patents": 940
  },
  {
    "fua_name": "Changsha",
    "fua_longitude": "112.93",
    "fua_latitude": "28.23",
    "nb_patents": 3685
  },
  {
    "fua_name": "Charleroi",
    "fua_longitude": "4.44",
    "fua_latitude": "50.41",
    "nb_patents": 1111
  },
  {
    "fua_name": "Charleston - Wv",
    "fua_longitude": "-81.63",
    "fua_latitude": "38.35",
    "nb_patents": null
  },
  {
    "fua_name": "Charleston-North Charleston - Sc",
    "fua_longitude": "-79.93",
    "fua_latitude": "32.78",
    "nb_patents": 1746
  },
  {
    "fua_name": "Charlotte-Gastonia-Salisbury - Nc-Sc",
    "fua_longitude": "-80.84",
    "fua_latitude": "35.22",
    "nb_patents": 10374
  },
  {
    "fua_name": "Chemnitz",
    "fua_longitude": "12.92",
    "fua_latitude": "50.83",
    "nb_patents": 1114
  },
  {
    "fua_name": "Chengdu",
    "fua_longitude": "104.0668",
    "fua_latitude": "30.5728",
    "nb_patents": 4786
  },
  {
    "fua_name": "Chennai",
    "fua_longitude": "80.2707",
    "fua_latitude": "13.0827",
    "nb_patents": 3510
  },
  {
    "fua_name": "Cheshire West and Chester",
    "fua_longitude": "-2.6003",
    "fua_latitude": "53.2669",
    "nb_patents": 2734
  },
  {
    "fua_name": "Chicago-Naperville-Michigan City - Il-In-Wi",
    "fua_longitude": "-87.6298",
    "fua_latitude": "41.8781",
    "nb_patents": 76042
  },
  {
    "fua_name": "Chinese Taipei",
    "fua_longitude": "121.565418",
    "fua_latitude": "25.032969",
    "nb_patents": 12822
  },
  {
    "fua_name": "Chongqing",
    "fua_longitude": "106.9123",
    "fua_latitude": "29.4316",
    "nb_patents": 2476
  },
  {
    "fua_name": "Christchurch",
    "fua_longitude": "172.64",
    "fua_latitude": "-43.53",
    "nb_patents": 1188
  },
  {
    "fua_name": "Chungcheongbuk-do",
    "fua_longitude": "127.4913",
    "fua_latitude": "36.6359",
    "nb_patents": 4677
  },
  {
    "fua_name": "Chungcheongnam-do",
    "fua_longitude": "126.8",
    "fua_latitude": "36.5184",
    "nb_patents": null
  },
  {
    "fua_name": "Cincinnati-Middletown-Wilmington - Oh-Ky-In",
    "fua_longitude": "-84.53",
    "fua_latitude": "39.13",
    "nb_patents": 33792
  },
  {
    "fua_name": "Clarksburg - Wv + Morgantown - Wv",
    "fua_longitude": "-79.96",
    "fua_latitude": "39.63",
    "nb_patents": null
  },
  {
    "fua_name": "Clermont-Ferrand",
    "fua_longitude": "3.08",
    "fua_latitude": "45.77",
    "nb_patents": 4923
  },
  {
    "fua_name": "Cleveland-Akron-Elyria - Oh",
    "fua_longitude": "-81.69",
    "fua_latitude": "41.5",
    "nb_patents": 28864
  },
  {
    "fua_name": "Cluj-Napoca",
    "fua_longitude": "23.6",
    "fua_latitude": "46.7667",
    "nb_patents": 120
  },
  {
    "fua_name": "Coimbra",
    "fua_longitude": "-8.42",
    "fua_latitude": "40.2",
    "nb_patents": 266
  },
  {
    "fua_name": "Colchester",
    "fua_longitude": "0.8919",
    "fua_latitude": "51.8959",
    "nb_patents": 6502
  },
  {
    "fua_name": "Colorado Springs - Co",
    "fua_longitude": "-104.8214",
    "fua_latitude": "38.8339",
    "nb_patents": null
  },
  {
    "fua_name": "Columbia - Mo",
    "fua_longitude": "-92.33",
    "fua_latitude": "38.91",
    "nb_patents": 1076
  },
  {
    "fua_name": "Columbia-Newberry - Sc",
    "fua_longitude": "-81.03",
    "fua_latitude": "34",
    "nb_patents": 1633
  },
  {
    "fua_name": "Columbus-Auburn-Opelika - Ga-Al",
    "fua_longitude": "-84.99",
    "fua_latitude": "32.46",
    "nb_patents": null
  },
  {
    "fua_name": "Columbus-Marion-Chillicothe - Oh",
    "fua_longitude": "-82.9988",
    "fua_latitude": "39.9612",
    "nb_patents": 11388
  },
  {
    "fua_name": "Communauté-Urbaine-de-Montréal, QC",
    "fua_longitude": "-73.56",
    "fua_latitude": "45.5",
    "nb_patents": 11644
  },
  {
    "fua_name": "Communauté-Urbaine-de-Québec, QC",
    "fua_longitude": "-71.2082",
    "fua_latitude": "46.8139",
    "nb_patents": 3304
  },
  {
    "fua_name": "Constanta",
    "fua_longitude": "6.6147",
    "fua_latitude": "36.365",
    "nb_patents": 36
  },
  {
    "fua_name": "Córdoba",
    "fua_longitude": "-4.78",
    "fua_latitude": "37.89",
    "nb_patents": 242
  },
  {
    "fua_name": "Cork",
    "fua_longitude": "-8.4756",
    "fua_latitude": "51.8985",
    "nb_patents": 1667
  },
  {
    "fua_name": "Corpus Christi-Kingsville - Tx",
    "fua_longitude": "-97.3964",
    "fua_latitude": "27.8006",
    "nb_patents": null
  },
  {
    "fua_name": "Cottbus",
    "fua_longitude": "14.3329",
    "fua_latitude": "51.7563",
    "nb_patents": 165
  },
  {
    "fua_name": "Coventry",
    "fua_longitude": "-1.5197",
    "fua_latitude": "52.4068",
    "nb_patents": 5448
  },
  {
    "fua_name": "Craiova",
    "fua_longitude": "23.8",
    "fua_latitude": "44.31",
    "nb_patents": 45
  },
  {
    "fua_name": "Curitiba",
    "fua_longitude": "-49.27",
    "fua_latitude": "-25.48",
    "nb_patents": 862
  },
  {
    "fua_name": "Czestochowa",
    "fua_longitude": "19.12",
    "fua_latitude": "50.81",
    "nb_patents": 108
  },
  {
    "fua_name": "Daegu",
    "fua_longitude": "128.6",
    "fua_latitude": "35.87",
    "nb_patents": 6220
  },
  {
    "fua_name": "Daejeon",
    "fua_longitude": "127.38",
    "fua_latitude": "36.35",
    "nb_patents": 29243
  },
  {
    "fua_name": "Dallas-Fort Worth - Tx",
    "fua_longitude": "-96.797",
    "fua_latitude": "32.7767",
    "nb_patents": null
  },
  {
    "fua_name": "Darmstadt",
    "fua_longitude": "8.65",
    "fua_latitude": "49.87",
    "nb_patents": 12711
  },
  {
    "fua_name": "Daugavpils",
    "fua_longitude": "26.53",
    "fua_latitude": "55.88",
    "nb_patents": 25
  },
  {
    "fua_name": "Davenport-Moline-Rock Island - Ia-Il",
    "fua_longitude": "-90.5776",
    "fua_latitude": "41.5236",
    "nb_patents": 806
  },
  {
    "fua_name": "Dayton-Springfield-Greenville - Oh",
    "fua_longitude": "-84.1916",
    "fua_latitude": "39.7589",
    "nb_patents": 4816
  },
  {
    "fua_name": "Debrecen",
    "fua_longitude": "21.63",
    "fua_latitude": "47.53",
    "nb_patents": 404
  },
  {
    "fua_name": "Delhi",
    "fua_longitude": "77.23",
    "fua_latitude": "28.61",
    "nb_patents": 2782
  },
  {
    "fua_name": "Denver-Aurora-Boulder - Co",
    "fua_longitude": "-104.98",
    "fua_latitude": "39.74",
    "nb_patents": null
  },
  {
    "fua_name": "Derby",
    "fua_longitude": "-1.48",
    "fua_latitude": "52.92",
    "nb_patents": 743
  },
  {
    "fua_name": "Des Moines-Newton-Pella - Ia",
    "fua_longitude": "-93.625",
    "fua_latitude": "41.5868",
    "nb_patents": null
  },
  {
    "fua_name": "Detroit-Warren-Flint - Mi",
    "fua_longitude": "-83.0458",
    "fua_latitude": "42.3314",
    "nb_patents": 51053
  },
  {
    "fua_name": "Dijon",
    "fua_longitude": "5.0415",
    "fua_latitude": "47.3216",
    "nb_patents": 1612
  },
  {
    "fua_name": "Doncaster",
    "fua_longitude": "-1.1285",
    "fua_latitude": "53.5228",
    "nb_patents": 933
  },
  {
    "fua_name": "Dordrecht",
    "fua_longitude": "4.67",
    "fua_latitude": "51.81",
    "nb_patents": 1063
  },
  {
    "fua_name": "Dothan-Enterprise-Ozark - Al",
    "fua_longitude": "-85.3905",
    "fua_latitude": "31.2232",
    "nb_patents": null
  },
  {
    "fua_name": "Dover - De",
    "fua_longitude": "1.3134",
    "fua_latitude": "51.1279",
    "nb_patents": 872
  },
  {
    "fua_name": "Dresden",
    "fua_longitude": "13.73",
    "fua_latitude": "51.05",
    "nb_patents": 8971
  },
  {
    "fua_name": "Drobeta Turnu Severin",
    "fua_longitude": "22.66",
    "fua_latitude": "44.62",
    "nb_patents": 9
  },
  {
    "fua_name": "Dublin",
    "fua_longitude": "-6.2603",
    "fua_latitude": "53.3498",
    "nb_patents": 5342
  },
  {
    "fua_name": "Duluth - Mn-Wi",
    "fua_longitude": "-92.13",
    "fua_latitude": "46.77",
    "nb_patents": 503
  },
  {
    "fua_name": "Dundee",
    "fua_longitude": "-2.97",
    "fua_latitude": "56.46",
    "nb_patents": 873
  },
  {
    "fua_name": "Durban",
    "fua_longitude": "31.02",
    "fua_latitude": "-29.85",
    "nb_patents": 709
  },
  {
    "fua_name": "Düren",
    "fua_longitude": "6.49",
    "fua_latitude": "50.8",
    "nb_patents": 2684
  },
  {
    "fua_name": "Düsseldorf",
    "fua_longitude": "6.7735",
    "fua_latitude": "51.2277",
    "nb_patents": 33264
  },
  {
    "fua_name": "East Sussex",
    "fua_longitude": "0.46",
    "fua_latitude": "50.92",
    "nb_patents": 1100
  },
  {
    "fua_name": "Edinburgh",
    "fua_longitude": "-3.18",
    "fua_latitude": "55.95",
    "nb_patents": 3898
  },
  {
    "fua_name": "Edmonton",
    "fua_longitude": "-113.49",
    "fua_latitude": "53.54",
    "nb_patents": 3264
  },
  {
    "fua_name": "Ehime",
    "fua_longitude": "132.77",
    "fua_latitude": "33.84",
    "nb_patents": 4154
  },
  {
    "fua_name": "Eindhoven",
    "fua_longitude": "5.4697",
    "fua_latitude": "51.4416",
    "nb_patents": 39464
  },
  {
    "fua_name": "El Paso - Tx",
    "fua_longitude": "-106.48",
    "fua_latitude": "31.76",
    "nb_patents": null
  },
  {
    "fua_name": "Elblag",
    "fua_longitude": "19.4",
    "fua_latitude": "54.15",
    "nb_patents": 37
  },
  {
    "fua_name": "Emmen",
    "fua_longitude": "6.91",
    "fua_latitude": "52.78",
    "nb_patents": 297
  },
  {
    "fua_name": "Enschede",
    "fua_longitude": "6.89",
    "fua_latitude": "52.22",
    "nb_patents": 2284
  },
  {
    "fua_name": "Erfurt",
    "fua_longitude": "11.0328",
    "fua_latitude": "50.9787",
    "nb_patents": 2145
  },
  {
    "fua_name": "Erie - Pa",
    "fua_longitude": "-80.0851",
    "fua_latitude": "42.1292",
    "nb_patents": 1512
  },
  {
    "fua_name": "Eugene-Springfield - Or",
    "fua_longitude": "-123.0868",
    "fua_latitude": "44.0521",
    "nb_patents": 1528
  },
  {
    "fua_name": "Evansville - In-Ky",
    "fua_longitude": "-87.56",
    "fua_latitude": "37.97",
    "nb_patents": 2238
  },
  {
    "fua_name": "Exeter",
    "fua_longitude": "-3.53",
    "fua_latitude": "50.72",
    "nb_patents": 1266
  },
  {
    "fua_name": "Fargo-Wahpeton - Nd-Mn",
    "fua_longitude": "-96.7898",
    "fua_latitude": "46.8772",
    "nb_patents": null
  },
  {
    "fua_name": "Farmington - Nm",
    "fua_longitude": "-108.2187",
    "fua_latitude": "36.7281",
    "nb_patents": 391
  },
  {
    "fua_name": "Fayetteville-Springdale-Rogers - Ar-Mo",
    "fua_longitude": "-94.1288",
    "fua_latitude": "36.1867",
    "nb_patents": 2525
  },
  {
    "fua_name": "Ferrara",
    "fua_longitude": "11.62",
    "fua_latitude": "44.83",
    "nb_patents": 1464
  },
  {
    "fua_name": "Firenze",
    "fua_longitude": "11.2558",
    "fua_latitude": "43.7696",
    "nb_patents": 2247
  },
  {
    "fua_name": "Flagstaff - Az",
    "fua_longitude": "-111.65",
    "fua_latitude": "35.2",
    "nb_patents": 689
  },
  {
    "fua_name": "Flensburg",
    "fua_longitude": "9.43",
    "fua_latitude": "54.78",
    "nb_patents": 460
  },
  {
    "fua_name": "Focsani",
    "fua_longitude": "27.18",
    "fua_latitude": "45.7",
    "nb_patents": 9
  },
  {
    "fua_name": "Foggia",
    "fua_longitude": "15.5445",
    "fua_latitude": "41.4622",
    "nb_patents": 140
  },
  {
    "fua_name": "Forli",
    "fua_longitude": "12.04",
    "fua_latitude": "44.22",
    "nb_patents": 817
  },
  {
    "fua_name": "Fort Smith - Ar-Ok",
    "fua_longitude": "-94.3985",
    "fua_latitude": "35.3859",
    "nb_patents": 173
  },
  {
    "fua_name": "Fort Wayne-Huntington-Auburn - In",
    "fua_longitude": "-85.1394",
    "fua_latitude": "41.0793",
    "nb_patents": null
  },
  {
    "fua_name": "Fort-de-France",
    "fua_longitude": "-61.08",
    "fua_latitude": "14.61",
    "nb_patents": 51
  },
  {
    "fua_name": "Fortaleza",
    "fua_longitude": "-38.52",
    "fua_latitude": "-3.73",
    "nb_patents": 114
  },
  {
    "fua_name": "Frankfurt am Main",
    "fua_longitude": "8.6821",
    "fua_latitude": "50.1109",
    "nb_patents": 38606
  },
  {
    "fua_name": "Freiburg im Breisgau",
    "fua_longitude": "7.8494005",
    "fua_latitude": "47.9960901",
    "nb_patents": 7781
  },
  {
    "fua_name": "Fresno-Madera - Ca",
    "fua_longitude": "-119.78",
    "fua_latitude": "36.73",
    "nb_patents": 918
  },
  {
    "fua_name": "Fuchal",
    "fua_longitude": "121.16",
    "fua_latitude": "24.9",
    "nb_patents": 18
  },
  {
    "fua_name": "Fukui",
    "fua_longitude": "136.22",
    "fua_latitude": "36.06",
    "nb_patents": 1979
  },
  {
    "fua_name": "Fukuoka",
    "fua_longitude": "130.4",
    "fua_latitude": "33.59",
    "nb_patents": 8856
  },
  {
    "fua_name": "Fukushima",
    "fua_longitude": "140.47",
    "fua_latitude": "37.75",
    "nb_patents": 3074
  },
  {
    "fua_name": "Gainesville - Fl",
    "fua_longitude": "-82.32",
    "fua_latitude": "29.65",
    "nb_patents": 3678
  },
  {
    "fua_name": "Galati",
    "fua_longitude": "28.03",
    "fua_latitude": "45.43",
    "nb_patents": 10
  },
  {
    "fua_name": "Gangwon-do",
    "fua_longitude": "128.1555",
    "fua_latitude": "37.8228",
    "nb_patents": 2646
  },
  {
    "fua_name": "Gdansk",
    "fua_longitude": "18.64",
    "fua_latitude": "54.36",
    "nb_patents": 634
  },
  {
    "fua_name": "Genève",
    "fua_longitude": "6.15",
    "fua_latitude": "46.2",
    "nb_patents": 4010
  },
  {
    "fua_name": "Genova",
    "fua_longitude": "8.93",
    "fua_latitude": "44.41",
    "nb_patents": 1731
  },
  {
    "fua_name": "Gent",
    "fua_longitude": "-0.0144",
    "fua_latitude": "51.4917",
    "nb_patents": 4364
  },
  {
    "fua_name": "Gera",
    "fua_longitude": "5.5848",
    "fua_latitude": "49.7258",
    "nb_patents": 180
  },
  {
    "fua_name": "Gießen",
    "fua_longitude": "8.6734",
    "fua_latitude": "50.5871",
    "nb_patents": 1747
  },
  {
    "fua_name": "Gifu",
    "fua_longitude": "136.76",
    "fua_latitude": "35.42",
    "nb_patents": 3575
  },
  {
    "fua_name": "Glasgow",
    "fua_longitude": "-4.25",
    "fua_latitude": "55.86",
    "nb_patents": 3516
  },
  {
    "fua_name": "Gloucestershire",
    "fua_longitude": "-2.2381",
    "fua_latitude": "51.8642",
    "nb_patents": 3145
  },
  {
    "fua_name": "Goiania",
    "fua_longitude": "-49.26",
    "fua_latitude": "-16.67",
    "nb_patents": 113
  },
  {
    "fua_name": "Gold Coast",
    "fua_longitude": "153.4",
    "fua_latitude": "-28.0167",
    "nb_patents": 1236
  },
  {
    "fua_name": "Görlitz",
    "fua_longitude": "14.97",
    "fua_latitude": "51.15",
    "nb_patents": 500
  },
  {
    "fua_name": "Gorzów Wielkopolski",
    "fua_longitude": "15.24",
    "fua_latitude": "52.73",
    "nb_patents": 21
  },
  {
    "fua_name": "Göteborg",
    "fua_longitude": "11.97",
    "fua_latitude": "57.7",
    "nb_patents": 19943
  },
  {
    "fua_name": "Göttingen",
    "fua_longitude": "9.9158",
    "fua_latitude": "51.5413",
    "nb_patents": 3583
  },
  {
    "fua_name": "Grad Zagreb",
    "fua_longitude": "15.98",
    "fua_latitude": "45.81",
    "nb_patents": 881
  },
  {
    "fua_name": "Granada",
    "fua_longitude": "-3.61",
    "fua_latitude": "37.19",
    "nb_patents": 564
  },
  {
    "fua_name": "Grand Forks - Nd-Mn",
    "fua_longitude": "-97.43",
    "fua_latitude": "47.94",
    "nb_patents": null
  },
  {
    "fua_name": "Grand Rapids-Muskegon-Holland - Mi",
    "fua_longitude": "-85.67",
    "fua_latitude": "42.965",
    "nb_patents": 9437
  },
  {
    "fua_name": "Graz",
    "fua_longitude": "15.44",
    "fua_latitude": "47.07",
    "nb_patents": 5942
  },
  {
    "fua_name": "Great Falls - Mt",
    "fua_longitude": "-111.29",
    "fua_latitude": "47.5",
    "nb_patents": null
  },
  {
    "fua_name": "Greater Adelaide",
    "fua_longitude": "138.6",
    "fua_latitude": "-34.92",
    "nb_patents": 3543
  },
  {
    "fua_name": "Greater Brisbane",
    "fua_longitude": "153.03",
    "fua_latitude": "-27.47",
    "nb_patents": 6288
  },
  {
    "fua_name": "Greater Melbourne",
    "fua_longitude": "144.96",
    "fua_latitude": "-37.81",
    "nb_patents": 14408
  },
  {
    "fua_name": "Greater Perth",
    "fua_longitude": "115.8605",
    "fua_latitude": "-31.9505",
    "nb_patents": 5299
  },
  {
    "fua_name": "Greater Sydney",
    "fua_longitude": "151.21",
    "fua_latitude": "-33.87",
    "nb_patents": 17006
  },
  {
    "fua_name": "Greater Vancouver, BC",
    "fua_longitude": "-123.12",
    "fua_latitude": "49.28",
    "nb_patents": 9884
  },
  {
    "fua_name": "Greensboro-Winston-Salem-High Point - Nc",
    "fua_longitude": "-79.792",
    "fua_latitude": "36.0726",
    "nb_patents": 6145
  },
  {
    "fua_name": "Greenville - Nc",
    "fua_longitude": "-77.37",
    "fua_latitude": "35.61",
    "nb_patents": null
  },
  {
    "fua_name": "Greenville-Spartanburg-Anderson - Sc",
    "fua_longitude": "-82.394",
    "fua_latitude": "34.8526",
    "nb_patents": 7099
  },
  {
    "fua_name": "Grenoble",
    "fua_longitude": "5.72",
    "fua_latitude": "45.17",
    "nb_patents": 14014
  },
  {
    "fua_name": "Groningen",
    "fua_longitude": "6.57",
    "fua_latitude": "53.22",
    "nb_patents": 1383
  },
  {
    "fua_name": "Grudziadz",
    "fua_longitude": "18.75",
    "fua_latitude": "53.48",
    "nb_patents": 51
  },
  {
    "fua_name": "Guadalajara",
    "fua_longitude": "-103.35",
    "fua_latitude": "20.66",
    "nb_patents": null
  },
  {
    "fua_name": "Guangzhou",
    "fua_longitude": "113.26",
    "fua_latitude": "23.13",
    "nb_patents": 40448
  },
  {
    "fua_name": "Guiyang",
    "fua_longitude": "106.63",
    "fua_latitude": "26.65",
    "nb_patents": 370
  },
  {
    "fua_name": "Gulfport-Biloxi-Pascagoula - Ms",
    "fua_longitude": "-88.5561",
    "fua_latitude": "30.3658",
    "nb_patents": 353
  },
  {
    "fua_name": "Gumma",
    "fua_longitude": null,
    "fua_latitude": null,
    "nb_patents": 6996
  },
  {
    "fua_name": "Gwangju",
    "fua_longitude": "126.85",
    "fua_latitude": "35.16",
    "nb_patents": 3777
  },
  {
    "fua_name": "Gyeongsangbuk-do",
    "fua_longitude": "128.8889",
    "fua_latitude": "36.4919",
    "nb_patents": 6640
  },
  {
    "fua_name": "Gyeongsangnam-do",
    "fua_longitude": "128.68",
    "fua_latitude": "35.23",
    "nb_patents": 7588
  },
  {
    "fua_name": "Gyor",
    "fua_longitude": "17.63",
    "fua_latitude": "47.68",
    "nb_patents": 290
  },
  {
    "fua_name": "Haifa District",
    "fua_longitude": "34.9896",
    "fua_latitude": "32.794",
    "nb_patents": 11632
  },
  {
    "fua_name": "Haikou",
    "fua_longitude": "110.34",
    "fua_latitude": "20.04",
    "nb_patents": 185
  },
  {
    "fua_name": "Halle an der Saale",
    "fua_longitude": "11.97",
    "fua_latitude": "51.49",
    "nb_patents": 1521
  },
  {
    "fua_name": "Hamburg",
    "fua_longitude": "9.99",
    "fua_latitude": "53.55",
    "nb_patents": 20188
  },
  {
    "fua_name": "Hangzhou",
    "fua_longitude": "120.16",
    "fua_latitude": "30.25",
    "nb_patents": 19913
  },
  {
    "fua_name": "Hannover",
    "fua_longitude": "9.732",
    "fua_latitude": "52.3759",
    "nb_patents": 8665
  },
  {
    "fua_name": "Harbin",
    "fua_longitude": "126.53",
    "fua_latitude": "45.8",
    "nb_patents": 821
  },
  {
    "fua_name": "Harrisburg-Carlisle-Lebanon - Pa",
    "fua_longitude": "-76.8822",
    "fua_latitude": "40.2599",
    "nb_patents": 7028
  },
  {
    "fua_name": "Harrisonburg - Va",
    "fua_longitude": "-78.87",
    "fua_latitude": "38.44",
    "nb_patents": null
  },
  {
    "fua_name": "Hartford-West Hartford-Willimantic - Ct",
    "fua_longitude": "-72.67",
    "fua_latitude": "41.76",
    "nb_patents": 21911
  },
  {
    "fua_name": "Hefei",
    "fua_longitude": "117.22",
    "fua_latitude": "31.82",
    "nb_patents": 2755
  },
  {
    "fua_name": "Heidelberg",
    "fua_longitude": "8.7",
    "fua_latitude": "49.41",
    "nb_patents": 17899
  },
  {
    "fua_name": "Heilbronn",
    "fua_longitude": "9.22",
    "fua_latitude": "49.14",
    "nb_patents": 6254
  },
  {
    "fua_name": "Helena - Mt",
    "fua_longitude": "-112.0245",
    "fua_latitude": "46.5884",
    "nb_patents": null
  },
  {
    "fua_name": "Helsinki",
    "fua_longitude": "24.94",
    "fua_latitude": "60.17",
    "nb_patents": 23428
  },
  {
    "fua_name": "Heraklion",
    "fua_longitude": "25.13",
    "fua_latitude": "35.34",
    "nb_patents": 155
  },
  {
    "fua_name": "Hildesheim",
    "fua_longitude": "9.95",
    "fua_latitude": "52.15",
    "nb_patents": 2444
  },
  {
    "fua_name": "Hiroshima",
    "fua_longitude": "132.4594",
    "fua_latitude": "34.3966",
    "nb_patents": 6531
  },
  {
    "fua_name": "Hohhot",
    "fua_longitude": "111.65",
    "fua_latitude": "40.82",
    "nb_patents": 596
  },
  {
    "fua_name": "Hokkaido",
    "fua_longitude": "142.38",
    "fua_latitude": "43.95",
    "nb_patents": 3356
  },
  {
    "fua_name": "Hong Kong, China",
    "fua_longitude": "114.1694",
    "fua_latitude": "22.3193",
    "nb_patents": 10086
  },
  {
    "fua_name": "Honolulu - Hi",
    "fua_longitude": "-157.86",
    "fua_latitude": "21.31",
    "nb_patents": 1667
  },
  {
    "fua_name": "Houston-Baytown-Huntsville - Tx",
    "fua_longitude": "-95.37",
    "fua_latitude": "29.76",
    "nb_patents": 66566
  },
  {
    "fua_name": "Huelva",
    "fua_longitude": "-6.95",
    "fua_latitude": "37.26",
    "nb_patents": 136
  },
  {
    "fua_name": "Huntsville-Decatur - Al",
    "fua_longitude": "-86.59",
    "fua_latitude": "34.73",
    "nb_patents": 2180
  },
  {
    "fua_name": "Hyderabad",
    "fua_longitude": "78.48",
    "fua_latitude": "17.38",
    "nb_patents": 5454
  },
  {
    "fua_name": "Iasi",
    "fua_longitude": "27.59",
    "fua_latitude": "47.16",
    "nb_patents": 60
  },
  {
    "fua_name": "Ibaraki",
    "fua_longitude": "140.45",
    "fua_latitude": "36.34",
    "nb_patents": 26854
  },
  {
    "fua_name": "Idaho Falls-Blackfoot - Id",
    "fua_longitude": "-112.0407",
    "fua_latitude": "43.4927",
    "nb_patents": null
  },
  {
    "fua_name": "IE011",
    "fua_longitude": "-6.26",
    "fua_latitude": "53.35",
    "nb_patents": 734
  },
  {
    "fua_name": "Incheon",
    "fua_longitude": "126.7",
    "fua_latitude": "37.45",
    "nb_patents": 10599
  },
  {
    "fua_name": "Indianapolis-Anderson-Columbus - In",
    "fua_longitude": "-86.16",
    "fua_latitude": "39.77",
    "nb_patents": 24443
  },
  {
    "fua_name": "Ingolstadt",
    "fua_longitude": "11.4258",
    "fua_latitude": "48.7665",
    "nb_patents": 6099
  },
  {
    "fua_name": "Innsbruck",
    "fua_longitude": "11.39",
    "fua_latitude": "47.26",
    "nb_patents": 1463
  },
  {
    "fua_name": "Ipswich",
    "fua_longitude": "1.1482",
    "fua_latitude": "52.0567",
    "nb_patents": 3555
  },
  {
    "fua_name": "Iserlohn",
    "fua_longitude": "7.7",
    "fua_latitude": "51.38",
    "nb_patents": 2191
  },
  {
    "fua_name": "Ishikawa",
    "fua_longitude": "136.6256",
    "fua_latitude": "36.5947",
    "nb_patents": 2536
  },
  {
    "fua_name": "Isle of Wight",
    "fua_longitude": "-1.3046",
    "fua_latitude": "50.6938",
    "nb_patents": 432
  },
  {
    "fua_name": "Istanbul",
    "fua_longitude": "28.9784",
    "fua_latitude": "41.0082",
    "nb_patents": 7290
  },
  {
    "fua_name": "Iwate",
    "fua_longitude": "141.1527",
    "fua_latitude": "39.7036",
    "nb_patents": 691
  },
  {
    "fua_name": "Izmir",
    "fua_longitude": "27.1287",
    "fua_latitude": "38.4192",
    "nb_patents": 651
  },
  {
    "fua_name": "Jackson-Yazoo City - Ms",
    "fua_longitude": "-90.18",
    "fua_latitude": "32.65",
    "nb_patents": null
  },
  {
    "fua_name": "Jacksonville - Fl",
    "fua_longitude": "-81.6556",
    "fua_latitude": "30.3322",
    "nb_patents": null
  },
  {
    "fua_name": "Jaen",
    "fua_longitude": "-3.79",
    "fua_latitude": "37.77",
    "nb_patents": 156
  },
  {
    "fua_name": "Jaipur",
    "fua_longitude": "75.7789",
    "fua_latitude": "26.9221",
    "nb_patents": 509
  },
  {
    "fua_name": "Jeju-do",
    "fua_longitude": "126.49",
    "fua_latitude": "33.49",
    "nb_patents": 796
  },
  {
    "fua_name": "Jena",
    "fua_longitude": "35.2906",
    "fua_latitude": "32.4656",
    "nb_patents": 3204
  },
  {
    "fua_name": "Jeollabuk-do",
    "fua_longitude": "127.15",
    "fua_latitude": "35.82",
    "nb_patents": 3293
  },
  {
    "fua_name": "Jeollanam-do",
    "fua_longitude": "126.4625",
    "fua_latitude": "34.8161",
    "nb_patents": 2413
  },
  {
    "fua_name": "Jerusalem District",
    "fua_longitude": "35.21198",
    "fua_latitude": "31.795924",
    "nb_patents": 5967
  },
  {
    "fua_name": "Johannesburg",
    "fua_longitude": "28.04",
    "fua_latitude": "-26.2",
    "nb_patents": 5210
  },
  {
    "fua_name": "Johnson City-Kingsport-Bristol - Tn-Va",
    "fua_longitude": "-82.37",
    "fua_latitude": "36.34",
    "nb_patents": 4215
  },
  {
    "fua_name": "Jonesboro - Ar",
    "fua_longitude": "-90.7043",
    "fua_latitude": "35.8423",
    "nb_patents": 150
  },
  {
    "fua_name": "Joplin - Mo",
    "fua_longitude": "-94.51",
    "fua_latitude": "37.08",
    "nb_patents": null
  },
  {
    "fua_name": "Kagawa",
    "fua_longitude": "134.0433",
    "fua_latitude": "34.34",
    "nb_patents": 4089
  },
  {
    "fua_name": "Kagoshima",
    "fua_longitude": "130.55",
    "fua_latitude": "31.56",
    "nb_patents": 1222
  },
  {
    "fua_name": "Kaiserslautern",
    "fua_longitude": "7.75",
    "fua_latitude": "49.44",
    "nb_patents": 2117
  },
  {
    "fua_name": "Kaliningrad",
    "fua_longitude": "20.51",
    "fua_latitude": "54.71",
    "nb_patents": 82
  },
  {
    "fua_name": "Kalisz",
    "fua_longitude": "18.08",
    "fua_latitude": "51.76",
    "nb_patents": 86
  },
  {
    "fua_name": "Kansas City-Overland Park-Kansas City - Mo-Ks",
    "fua_longitude": "-94.57",
    "fua_latitude": "39.09",
    "nb_patents": null
  },
  {
    "fua_name": "Karlsruhe",
    "fua_longitude": "8.4037",
    "fua_latitude": "49.0069",
    "nb_patents": 17459
  },
  {
    "fua_name": "Kassel",
    "fua_longitude": "9.49",
    "fua_latitude": "51.31",
    "nb_patents": 1745
  },
  {
    "fua_name": "Katowice",
    "fua_longitude": "19.0394",
    "fua_latitude": "50.2709",
    "nb_patents": 655
  },
  {
    "fua_name": "Kaunas",
    "fua_longitude": "23.91",
    "fua_latitude": "54.9",
    "nb_patents": 144
  },
  {
    "fua_name": "Kearney - Ne",
    "fua_longitude": "-99.08",
    "fua_latitude": "40.7",
    "nb_patents": null
  },
  {
    "fua_name": "Kecskemét",
    "fua_longitude": "19.6913",
    "fua_latitude": "46.9062",
    "nb_patents": 343
  },
  {
    "fua_name": "Kennewick-Richland-Pasco - Wa",
    "fua_longitude": "-119.1372",
    "fua_latitude": "46.2112",
    "nb_patents": 1760
  },
  {
    "fua_name": "Kiel",
    "fua_longitude": "10.13",
    "fua_latitude": "54.32",
    "nb_patents": 2743
  },
  {
    "fua_name": "Kielce",
    "fua_longitude": "20.6339",
    "fua_latitude": "50.8681",
    "nb_patents": 116
  },
  {
    "fua_name": "Killeen-Temple-Fort Hood - Tx",
    "fua_longitude": "-97.7278",
    "fua_latitude": "31.1171",
    "nb_patents": 526
  },
  {
    "fua_name": "Kingston upon Hull",
    "fua_longitude": "-0.34",
    "fua_latitude": "53.74",
    "nb_patents": 1867
  },
  {
    "fua_name": "Kirklees",
    "fua_longitude": "-1.83",
    "fua_latitude": "53.59",
    "nb_patents": 1296
  },
  {
    "fua_name": "Kitchener-Waterloo",
    "fua_longitude": "-80.49",
    "fua_latitude": "43.45",
    "nb_patents": 3869
  },
  {
    "fua_name": "Klaipeda",
    "fua_longitude": "21.15",
    "fua_latitude": "55.7",
    "nb_patents": 34
  },
  {
    "fua_name": "Knoxville-Sevierville-La Follette - Tn",
    "fua_longitude": "-83.92",
    "fua_latitude": "35.96",
    "nb_patents": null
  },
  {
    "fua_name": "København",
    "fua_longitude": "12.5683",
    "fua_latitude": "55.6761",
    "nb_patents": 30057
  },
  {
    "fua_name": "Koblenz",
    "fua_longitude": "7.6",
    "fua_latitude": "50.36",
    "nb_patents": 1681
  },
  {
    "fua_name": "Kochi",
    "fua_longitude": "76.2673",
    "fua_latitude": "9.9312",
    "nb_patents": 471
  },
  {
    "fua_name": "Kolkata",
    "fua_longitude": "88.3639",
    "fua_latitude": "22.5726",
    "nb_patents": 1313
  },
  {
    "fua_name": "Köln",
    "fua_longitude": "6.9603",
    "fua_latitude": "50.9375",
    "nb_patents": 25784
  },
  {
    "fua_name": "Konstanz",
    "fua_longitude": "9.18",
    "fua_latitude": "47.66",
    "nb_patents": 3716
  },
  {
    "fua_name": "Konya",
    "fua_longitude": "32.48",
    "fua_latitude": "37.87",
    "nb_patents": 247
  },
  {
    "fua_name": "Koszalin",
    "fua_longitude": "16.1724",
    "fua_latitude": "54.1944",
    "nb_patents": 25
  },
  {
    "fua_name": "KoÜice",
    "fua_longitude": "21.25",
    "fua_latitude": "48.72",
    "nb_patents": 149
  },
  {
    "fua_name": "Kraków",
    "fua_longitude": "19.945",
    "fua_latitude": "50.0647",
    "nb_patents": 1381
  },
  {
    "fua_name": "Krefeld",
    "fua_longitude": "6.57",
    "fua_latitude": "51.33",
    "nb_patents": 3138
  },
  {
    "fua_name": "Kumamoto",
    "fua_longitude": "130.74",
    "fua_latitude": "32.79",
    "nb_patents": 2378
  },
  {
    "fua_name": "Kumanova",
    "fua_longitude": "21.72",
    "fua_latitude": "42.13",
    "nb_patents": null
  },
  {
    "fua_name": "Kunming",
    "fua_longitude": "102.72",
    "fua_latitude": "25.04",
    "nb_patents": 583
  },
  {
    "fua_name": "La Crosse - Wi-Mn",
    "fua_longitude": "-91.2396",
    "fua_latitude": "43.8014",
    "nb_patents": 642
  },
  {
    "fua_name": "Lafayette-Acadiana - La",
    "fua_longitude": "-92.02",
    "fua_latitude": "30.22",
    "nb_patents": 1208
  },
  {
    "fua_name": "Lake Charles-Jennings - La",
    "fua_longitude": "-93.2",
    "fua_latitude": "30.23",
    "nb_patents": 373
  },
  {
    "fua_name": "Lanzhou",
    "fua_longitude": "103.79",
    "fua_latitude": "36.06",
    "nb_patents": 370
  },
  {
    "fua_name": "Larissa",
    "fua_longitude": "22.42",
    "fua_latitude": "39.64",
    "nb_patents": 44
  },
  {
    "fua_name": "Las Palmas",
    "fua_longitude": "-15.43",
    "fua_latitude": "28.12",
    "nb_patents": 212
  },
  {
    "fua_name": "Las Vegas-Paradise-Pahrump - Nv",
    "fua_longitude": "-115.14",
    "fua_latitude": "36.17",
    "nb_patents": 3763
  },
  {
    "fua_name": "Latina",
    "fua_longitude": "12.9",
    "fua_latitude": "41.47",
    "nb_patents": 405
  },
  {
    "fua_name": "Lausanne",
    "fua_longitude": "6.63",
    "fua_latitude": "46.52",
    "nb_patents": 10954
  },
  {
    "fua_name": "Le Mans",
    "fua_longitude": "0.1984",
    "fua_latitude": "48.0073",
    "nb_patents": 1132
  },
  {
    "fua_name": "Leeds",
    "fua_longitude": "-1.5491",
    "fua_latitude": "53.8",
    "nb_patents": 4544
  },
  {
    "fua_name": "Leeuwarden",
    "fua_longitude": "5.8",
    "fua_latitude": "53.2",
    "nb_patents": 436
  },
  {
    "fua_name": "Lefkosia",
    "fua_longitude": "33.36",
    "fua_latitude": "35.18",
    "nb_patents": 348
  },
  {
    "fua_name": "Legnica",
    "fua_longitude": "16.16",
    "fua_latitude": "51.21",
    "nb_patents": 76
  },
  {
    "fua_name": "Leicester",
    "fua_longitude": "-1.13",
    "fua_latitude": "52.63",
    "nb_patents": 5569
  },
  {
    "fua_name": "Leiden",
    "fua_longitude": "4.49",
    "fua_latitude": "52.16",
    "nb_patents": 2759
  },
  {
    "fua_name": "Leipzig",
    "fua_longitude": "12.37",
    "fua_latitude": "51.34",
    "nb_patents": 2352
  },
  {
    "fua_name": "Leon",
    "fua_longitude": "-5.57",
    "fua_latitude": "42.6",
    "nb_patents": 353
  },
  {
    "fua_name": "Lewiston - Id-Wa",
    "fua_longitude": "-116.98",
    "fua_latitude": "46.39",
    "nb_patents": null
  },
  {
    "fua_name": "Lexington-Fayette-Frankfort-Richmond - Ky",
    "fua_longitude": "-84.5008",
    "fua_latitude": "38.0507",
    "nb_patents": null
  },
  {
    "fua_name": "Liberec",
    "fua_longitude": "15.06",
    "fua_latitude": "50.77",
    "nb_patents": 275
  },
  {
    "fua_name": "Liège",
    "fua_longitude": "5.56749",
    "fua_latitude": "50.63373",
    "nb_patents": 2143
  },
  {
    "fua_name": "Lille - Dunkerque - Valenciennes",
    "fua_longitude": "3.0573",
    "fua_latitude": "50.6292",
    "nb_patents": 4226
  },
  {
    "fua_name": "Limoges",
    "fua_longitude": "1.26",
    "fua_latitude": "45.83",
    "nb_patents": 671
  },
  {
    "fua_name": "Lincoln - Ne",
    "fua_longitude": "-96.67",
    "fua_latitude": "40.8",
    "nb_patents": null
  },
  {
    "fua_name": "Linz",
    "fua_longitude": "14.2862",
    "fua_latitude": "48.3069",
    "nb_patents": 5718
  },
  {
    "fua_name": "Lisboa",
    "fua_longitude": "-9.14",
    "fua_latitude": "38.72",
    "nb_patents": 1335
  },
  {
    "fua_name": "Little Rock-North Little Rock-Pine Bluff - Ar",
    "fua_longitude": "-92.2745",
    "fua_latitude": "34.7486",
    "nb_patents": null
  },
  {
    "fua_name": "Liverpool",
    "fua_longitude": "-2.9916",
    "fua_latitude": "53.4084",
    "nb_patents": 6771
  },
  {
    "fua_name": "Livorno",
    "fua_longitude": "10.31",
    "fua_latitude": "43.55",
    "nb_patents": 604
  },
  {
    "fua_name": "Ljubljana",
    "fua_longitude": "14.5058",
    "fua_latitude": "46.0569",
    "nb_patents": 51
  },
  {
    "fua_name": "Lleida",
    "fua_longitude": "0.62",
    "fua_latitude": "41.6176",
    "nb_patents": 228
  },
  {
    "fua_name": "Lódz",
    "fua_longitude": "19.456",
    "fua_latitude": "51.7689",
    "nb_patents": 511
  },
  {
    "fua_name": "Logrono",
    "fua_longitude": "-2.45",
    "fua_latitude": "42.46",
    "nb_patents": 176
  },
  {
    "fua_name": "London",
    "fua_longitude": "-0.1278",
    "fua_latitude": "51.5074",
    "nb_patents": 64461
  },
  {
    "fua_name": "Los Angeles-Long Beach-Riverside - Ca",
    "fua_longitude": "-118.2437",
    "fua_latitude": "34.0522",
    "nb_patents": 92901
  },
  {
    "fua_name": "Louisville-Elizabethtown-Scottsburg - Ky-In",
    "fua_longitude": "-85.76",
    "fua_latitude": "38.25",
    "nb_patents": null
  },
  {
    "fua_name": "Lubbock-Levelland - Tx",
    "fua_longitude": "-101.85",
    "fua_latitude": "33.58",
    "nb_patents": null
  },
  {
    "fua_name": "Lübeck",
    "fua_longitude": "10.6866",
    "fua_latitude": "53.8668",
    "nb_patents": 1378
  },
  {
    "fua_name": "Lublin",
    "fua_longitude": "22.57",
    "fua_latitude": "51.25",
    "nb_patents": 133
  },
  {
    "fua_name": "Lucknow",
    "fua_longitude": "80.9462",
    "fua_latitude": "26.8467",
    "nb_patents": 20283
  },
  {
    "fua_name": "Luton",
    "fua_longitude": "-0.42",
    "fua_latitude": "51.8787",
    "nb_patents": 214
  },
  {
    "fua_name": "Luxembourg",
    "fua_longitude": "6.1319",
    "fua_latitude": "49.6116",
    "nb_patents": 2088
  },
  {
    "fua_name": "Lyon",
    "fua_longitude": "4.85",
    "fua_latitude": "45.75",
    "nb_patents": 17379
  },
  {
    "fua_name": "Maastricht",
    "fua_longitude": "5.69",
    "fua_latitude": "50.85",
    "nb_patents": 4259
  },
  {
    "fua_name": "Macau",
    "fua_longitude": "113.55",
    "fua_latitude": "22.2",
    "nb_patents": 82
  },
  {
    "fua_name": "Macon-Warner Robins-Fort Valley - Ga",
    "fua_longitude": "-83.6324",
    "fua_latitude": "32.8407",
    "nb_patents": null
  },
  {
    "fua_name": "Madison-Baraboo - Wi",
    "fua_longitude": "-89.4",
    "fua_latitude": "43.07",
    "nb_patents": 7595
  },
  {
    "fua_name": "Madrid",
    "fua_longitude": "-3.7",
    "fua_latitude": "40.41",
    "nb_patents": 8397
  },
  {
    "fua_name": "Magdeburg",
    "fua_longitude": "11.64",
    "fua_latitude": "52.13",
    "nb_patents": 1141
  },
  {
    "fua_name": "Mainz",
    "fua_longitude": "8.2473",
    "fua_latitude": "49.9929",
    "nb_patents": 3682
  },
  {
    "fua_name": "Málaga - Marbella",
    "fua_longitude": "-4.42",
    "fua_latitude": "36.72",
    "nb_patents": 731
  },
  {
    "fua_name": "Malmö",
    "fua_longitude": "13",
    "fua_latitude": "55.6",
    "nb_patents": 17140
  },
  {
    "fua_name": "Manaus",
    "fua_longitude": "-62.2159",
    "fua_latitude": "-3.4653",
    "nb_patents": 46
  },
  {
    "fua_name": "Manchester",
    "fua_longitude": "-2.24",
    "fua_latitude": "53.48",
    "nb_patents": 11387
  },
  {
    "fua_name": "Mannheim-Ludwigshafen",
    "fua_longitude": "8.46",
    "fua_latitude": "49.49",
    "nb_patents": 45436
  },
  {
    "fua_name": "Maribor",
    "fua_longitude": "15.64",
    "fua_latitude": "46.56",
    "nb_patents": 408
  },
  {
    "fua_name": "Marinette - Wi-Mi",
    "fua_longitude": "-87.63",
    "fua_latitude": "45.1",
    "nb_patents": 742
  },
  {
    "fua_name": "Marseille-Aix",
    "fua_longitude": "5.3698",
    "fua_latitude": "43.2965",
    "nb_patents": 8092
  },
  {
    "fua_name": "Mason City - Ia",
    "fua_longitude": "-93.2",
    "fua_latitude": "43.15",
    "nb_patents": null
  },
  {
    "fua_name": "Mcallen-Edinburg-Pharr - Tx",
    "fua_longitude": "-98.23",
    "fua_latitude": "26.2",
    "nb_patents": 297
  },
  {
    "fua_name": "Medway",
    "fua_longitude": "0.53",
    "fua_latitude": "51.38",
    "nb_patents": 476
  },
  {
    "fua_name": "Memphis - Tn-Ms-Ar",
    "fua_longitude": "-90.049",
    "fua_latitude": "35.1495",
    "nb_patents": null
  },
  {
    "fua_name": "Messina",
    "fua_longitude": "15.55",
    "fua_latitude": "38.37",
    "nb_patents": 243
  },
  {
    "fua_name": "Metz",
    "fua_longitude": "6.12",
    "fua_latitude": "49.23",
    "nb_patents": 2093
  },
  {
    "fua_name": "Miami-Fort Lauderdale-Miami Beach - Fl",
    "fua_longitude": "-80.1918",
    "fua_latitude": "25.7617",
    "nb_patents": null
  },
  {
    "fua_name": "Middlesbrough",
    "fua_longitude": "-1.2348",
    "fua_latitude": "54.5762",
    "nb_patents": 714
  },
  {
    "fua_name": "Midland-Odessa - Tx",
    "fua_longitude": "-102.27",
    "fua_latitude": "31.92",
    "nb_patents": null
  },
  {
    "fua_name": "Midlands",
    "fua_longitude": "-1.6956",
    "fua_latitude": "52.634",
    "nb_patents": 450
  },
  {
    "fua_name": "Mie",
    "fua_longitude": "136.51",
    "fua_latitude": "34.73",
    "nb_patents": 8534
  },
  {
    "fua_name": "Milano",
    "fua_longitude": "9.19",
    "fua_latitude": "45.4642",
    "nb_patents": 15815
  },
  {
    "fua_name": "Milton Keynes",
    "fua_longitude": "-0.76",
    "fua_latitude": "52.04",
    "nb_patents": 5719
  },
  {
    "fua_name": "Milwaukee-Racine-Waukesha - Wi",
    "fua_longitude": "-87.9065",
    "fua_latitude": "43.0389",
    "nb_patents": 14284
  },
  {
    "fua_name": "Minneapolis-St. Paul-St. Cloud - Mn-Wi",
    "fua_longitude": "-93.2",
    "fua_latitude": "44.94",
    "nb_patents": null
  },
  {
    "fua_name": "Minot - Nd",
    "fua_longitude": "-101.2963",
    "fua_latitude": "48.2325",
    "nb_patents": null
  },
  {
    "fua_name": "Miskolc",
    "fua_longitude": "20.78",
    "fua_latitude": "48.1",
    "nb_patents": 246
  },
  {
    "fua_name": "Missoula - Mt",
    "fua_longitude": "-113.99",
    "fua_latitude": "46.87",
    "nb_patents": 836
  },
  {
    "fua_name": "Miyagi",
    "fua_longitude": "140.8694",
    "fua_latitude": "38.2682",
    "nb_patents": 4731
  },
  {
    "fua_name": "Miyazaki",
    "fua_longitude": "131.42",
    "fua_latitude": "31.91",
    "nb_patents": 868
  },
  {
    "fua_name": "Mobile-Daphne-Fairhope - Al",
    "fua_longitude": "-88.0399",
    "fua_latitude": "30.6954",
    "nb_patents": 753
  },
  {
    "fua_name": "Modena",
    "fua_longitude": "10.93",
    "fua_latitude": "44.64",
    "nb_patents": 2810
  },
  {
    "fua_name": "Monaco",
    "fua_longitude": "7.4246",
    "fua_latitude": "43.7384",
    "nb_patents": 209
  },
  {
    "fua_name": "Mönchengladbach",
    "fua_longitude": "6.44",
    "fua_latitude": "51.18",
    "nb_patents": 1434
  },
  {
    "fua_name": "Monroe-Bastrop - La",
    "fua_longitude": "-92.119301",
    "fua_latitude": "32.509311",
    "nb_patents": null
  },
  {
    "fua_name": "Monterrey",
    "fua_longitude": "-100.3161",
    "fua_latitude": "25.6866",
    "nb_patents": null
  },
  {
    "fua_name": "Montgomery-Alexander City - Al",
    "fua_longitude": "-86.3",
    "fua_latitude": "32.38",
    "nb_patents": null
  },
  {
    "fua_name": "Montpellier",
    "fua_longitude": "3.88",
    "fua_latitude": "43.61",
    "nb_patents": 3389
  },
  {
    "fua_name": "Moscow",
    "fua_longitude": "37.62",
    "fua_latitude": "55.75",
    "nb_patents": 16218
  },
  {
    "fua_name": "Mulhouse",
    "fua_longitude": "7.34",
    "fua_latitude": "47.75",
    "nb_patents": 4672
  },
  {
    "fua_name": "Mumbai",
    "fua_longitude": "72.8777",
    "fua_latitude": "19.076",
    "nb_patents": 11518
  },
  {
    "fua_name": "München",
    "fua_longitude": "11.582",
    "fua_latitude": "48.1351",
    "nb_patents": 70207
  },
  {
    "fua_name": "Münster",
    "fua_longitude": "7.63",
    "fua_latitude": "51.96",
    "nb_patents": 4640
  },
  {
    "fua_name": "Murcia - Cartagena",
    "fua_longitude": "-1.13",
    "fua_latitude": "37.98",
    "nb_patents": 755
  },
  {
    "fua_name": "Myrtle Beach-Conway-Georgetown - Sc",
    "fua_longitude": "-78.89",
    "fua_latitude": "33.6956",
    "nb_patents": 1590
  },
  {
    "fua_name": "NA",
    "fua_longitude": null,
    "fua_latitude": null,
    "nb_patents": null
  },
  {
    "fua_name": "Nagano",
    "fua_longitude": "139.49",
    "fua_latitude": "36.04",
    "nb_patents": 8011
  },
  {
    "fua_name": "Nagasaki",
    "fua_longitude": "129.88",
    "fua_latitude": "32.75",
    "nb_patents": 1194
  },
  {
    "fua_name": "Namur",
    "fua_longitude": "4.8675",
    "fua_latitude": "50.4669",
    "nb_patents": 1170
  },
  {
    "fua_name": "Nanchang",
    "fua_longitude": "115.85",
    "fua_latitude": "28.68",
    "nb_patents": 1207
  },
  {
    "fua_name": "Nancy",
    "fua_longitude": "6.1844",
    "fua_latitude": "48.6921",
    "nb_patents": 1577
  },
  {
    "fua_name": "Nanjing",
    "fua_longitude": "118.79",
    "fua_latitude": "32.06",
    "nb_patents": 32597
  },
  {
    "fua_name": "Nanning",
    "fua_longitude": "108.32",
    "fua_latitude": "22.82",
    "nb_patents": 810
  },
  {
    "fua_name": "Nantes",
    "fua_longitude": "-1.5528",
    "fua_latitude": "47.2181",
    "nb_patents": 2676
  },
  {
    "fua_name": "Napoli",
    "fua_longitude": "14.27",
    "fua_latitude": "40.85",
    "nb_patents": 1443
  },
  {
    "fua_name": "Nara",
    "fua_longitude": "74.6412",
    "fua_latitude": "26.4334",
    "nb_patents": 4879
  },
  {
    "fua_name": "Nashville-Davidson-Murfreesboro-Columbia - Tn",
    "fua_longitude": "-86.78",
    "fua_latitude": "36.17",
    "nb_patents": null
  },
  {
    "fua_name": "Neubrandenburg",
    "fua_longitude": "13.26",
    "fua_latitude": "53.56",
    "nb_patents": 305
  },
  {
    "fua_name": "Nevers",
    "fua_longitude": "3.16",
    "fua_latitude": "46.99",
    "nb_patents": 273
  },
  {
    "fua_name": "New Orleans-Metairie-Bogalusa - La",
    "fua_longitude": "-90.07",
    "fua_latitude": "29.95",
    "nb_patents": 2762
  },
  {
    "fua_name": "New York-Newark-Bridgeport - Ny-Nj-Ct-Pa",
    "fua_longitude": "-74.01",
    "fua_latitude": "40.71",
    "nb_patents": 197211
  },
  {
    "fua_name": "Newcastle upon Tyne",
    "fua_longitude": "-1.6174",
    "fua_latitude": "54.9783",
    "nb_patents": 3783
  },
  {
    "fua_name": "Newport",
    "fua_longitude": "-2.99",
    "fua_latitude": "51.58",
    "nb_patents": 734
  },
  {
    "fua_name": "Nice",
    "fua_longitude": "7.26",
    "fua_latitude": "43.71",
    "nb_patents": 5105
  },
  {
    "fua_name": "Niigata",
    "fua_longitude": "139.04",
    "fua_latitude": "37.92",
    "nb_patents": 3656
  },
  {
    "fua_name": "Nimes",
    "fua_longitude": "4.36",
    "fua_latitude": "43.83",
    "nb_patents": 1574
  },
  {
    "fua_name": "Northampton",
    "fua_longitude": "-0.9",
    "fua_latitude": "52.24",
    "nb_patents": 1192
  },
  {
    "fua_name": "Norwich",
    "fua_longitude": "1.29",
    "fua_latitude": "52.63",
    "nb_patents": 1806
  },
  {
    "fua_name": "Nottingham",
    "fua_longitude": "-1.15",
    "fua_latitude": "52.95",
    "nb_patents": 1488
  },
  {
    "fua_name": "Novara",
    "fua_longitude": null,
    "fua_latitude": null,
    "nb_patents": 1508
  },
  {
    "fua_name": "Novosibirsk",
    "fua_longitude": "82.9357",
    "fua_latitude": "55.0084",
    "nb_patents": 111
  },
  {
    "fua_name": "Nürnberg",
    "fua_longitude": "11.0767",
    "fua_latitude": "49.4521",
    "nb_patents": 33624
  },
  {
    "fua_name": "Nyiregyhaza",
    "fua_longitude": "21.72",
    "fua_latitude": "47.95",
    "nb_patents": 149
  },
  {
    "fua_name": "Odense",
    "fua_longitude": "10.3906",
    "fua_latitude": "55.396229",
    "nb_patents": 1868
  },
  {
    "fua_name": "Offenburg",
    "fua_longitude": "7.9443",
    "fua_latitude": "48.4737",
    "nb_patents": 4282
  },
  {
    "fua_name": "Oita",
    "fua_longitude": null,
    "fua_latitude": null,
    "nb_patents": 1001
  },
  {
    "fua_name": "Okayama",
    "fua_longitude": "133.92",
    "fua_latitude": "34.66",
    "nb_patents": 4302
  },
  {
    "fua_name": "Okinawa",
    "fua_longitude": "127.9454",
    "fua_latitude": "26.5013",
    "nb_patents": 442
  },
  {
    "fua_name": "Oklahoma City-Shawnee - Ok",
    "fua_longitude": "-97.51",
    "fua_latitude": "35.46",
    "nb_patents": null
  },
  {
    "fua_name": "Oldenburg (Oldenburg)",
    "fua_longitude": "8.2145",
    "fua_latitude": "53.1439",
    "nb_patents": 1106
  },
  {
    "fua_name": "Olomouc",
    "fua_longitude": "17.2509",
    "fua_latitude": "49.5938",
    "nb_patents": 379
  },
  {
    "fua_name": "Olsztyn",
    "fua_longitude": "20.4942",
    "fua_latitude": "53.7799",
    "nb_patents": 55
  },
  {
    "fua_name": "Omaha-Council Bluffs-Fremont - Ne-Ia",
    "fua_longitude": "-95.9345",
    "fua_latitude": "41.2565",
    "nb_patents": 1830
  },
  {
    "fua_name": "Opole",
    "fua_longitude": "17.93",
    "fua_latitude": "50.67",
    "nb_patents": 111
  },
  {
    "fua_name": "Oradea",
    "fua_longitude": "21.9189",
    "fua_latitude": "47.0465",
    "nb_patents": 18
  },
  {
    "fua_name": "Orense",
    "fua_longitude": "35.3035",
    "fua_latitude": "32.6654",
    "nb_patents": 56
  },
  {
    "fua_name": "Orlando-The Villages - Fl",
    "fua_longitude": "-81.3792",
    "fua_latitude": "28.5383",
    "nb_patents": 10533
  },
  {
    "fua_name": "Orléans",
    "fua_longitude": "1.90925",
    "fua_latitude": "47.90296",
    "nb_patents": 2039
  },
  {
    "fua_name": "Osaka",
    "fua_longitude": "135.5",
    "fua_latitude": "34.69",
    "nb_patents": 138178
  },
  {
    "fua_name": "Oslo",
    "fua_longitude": "10.75",
    "fua_latitude": "59.91",
    "nb_patents": 8771
  },
  {
    "fua_name": "Osnabrück",
    "fua_longitude": "8.0472",
    "fua_latitude": "52.2799",
    "nb_patents": 3053
  },
  {
    "fua_name": "Ostrava",
    "fua_longitude": "18.28",
    "fua_latitude": "49.83",
    "nb_patents": 482
  },
  {
    "fua_name": "Ottawa-Carleton, ON",
    "fua_longitude": "-75.6972",
    "fua_latitude": "45.4215",
    "nb_patents": 8897
  },
  {
    "fua_name": "Oulu",
    "fua_longitude": "25.4651",
    "fua_latitude": "65.0121",
    "nb_patents": 4692
  },
  {
    "fua_name": "Oviedo - Gijón",
    "fua_longitude": "-5.84",
    "fua_latitude": "43.36",
    "nb_patents": 552
  },
  {
    "fua_name": "Oxford",
    "fua_longitude": "-1.26",
    "fua_latitude": "51.75",
    "nb_patents": 10236
  },
  {
    "fua_name": "Paderborn",
    "fua_longitude": "8.76",
    "fua_latitude": "51.72",
    "nb_patents": 2066
  },
  {
    "fua_name": "Padova",
    "fua_longitude": "11.8768",
    "fua_latitude": "45.4064",
    "nb_patents": 2669
  },
  {
    "fua_name": "Paducah - Ky-Il",
    "fua_longitude": "-88.6",
    "fua_latitude": "37.0834",
    "nb_patents": null
  },
  {
    "fua_name": "Päijät-Häme",
    "fua_longitude": "25.75",
    "fua_latitude": "61.32",
    "nb_patents": 750
  },
  {
    "fua_name": "Palermo",
    "fua_longitude": "13.3615",
    "fua_latitude": "38.1157",
    "nb_patents": 305
  },
  {
    "fua_name": "Palma de Mallorca",
    "fua_longitude": "2.65",
    "fua_latitude": "39.57",
    "nb_patents": 307
  },
  {
    "fua_name": "Pamplona/Iruña",
    "fua_longitude": "-1.6442",
    "fua_latitude": "42.8184",
    "nb_patents": 1176
  },
  {
    "fua_name": "Panama City-Lynn Haven - Fl",
    "fua_longitude": "-85.6602",
    "fua_latitude": "30.1588",
    "nb_patents": null
  },
  {
    "fua_name": "Panevezys",
    "fua_longitude": "24.36",
    "fua_latitude": "55.74",
    "nb_patents": 2
  },
  {
    "fua_name": "Paris",
    "fua_longitude": "2.3522",
    "fua_latitude": "48.8566",
    "nb_patents": 112069
  },
  {
    "fua_name": "Parma",
    "fua_longitude": "2.22",
    "fua_latitude": "49.14",
    "nb_patents": 1546
  },
  {
    "fua_name": "Pau",
    "fua_longitude": "-0.37",
    "fua_latitude": "43.3",
    "nb_patents": 2087
  },
  {
    "fua_name": "Pécs",
    "fua_longitude": "18.2281",
    "fua_latitude": "46.0762",
    "nb_patents": 211
  },
  {
    "fua_name": "Pendleton-Hermiston - Or",
    "fua_longitude": "-118.79",
    "fua_latitude": "45.67",
    "nb_patents": 53
  },
  {
    "fua_name": "Pensacola-Ferry Pass-Brent - Fl",
    "fua_longitude": "-87.2169",
    "fua_latitude": "30.4213",
    "nb_patents": 824
  },
  {
    "fua_name": "Peoria-Canton - Il",
    "fua_longitude": "-89.589",
    "fua_latitude": "40.6936",
    "nb_patents": null
  },
  {
    "fua_name": "Perpignan",
    "fua_longitude": "2.8948",
    "fua_latitude": "42.6887",
    "nb_patents": 346
  },
  {
    "fua_name": "Perugia",
    "fua_longitude": "12.3908",
    "fua_latitude": "43.1107",
    "nb_patents": 820
  },
  {
    "fua_name": "Pescara",
    "fua_longitude": "14.2133",
    "fua_latitude": "42.4647",
    "nb_patents": 549
  },
  {
    "fua_name": "Peterborough",
    "fua_longitude": "-0.24",
    "fua_latitude": "52.57",
    "nb_patents": 456
  },
  {
    "fua_name": "Pforzheim",
    "fua_longitude": "8.7",
    "fua_latitude": "48.89",
    "nb_patents": 4590
  },
  {
    "fua_name": "Philadelphia-Camden-Vineland - Pa-Nj-De-Md",
    "fua_longitude": "-75.16",
    "fua_latitude": "39.95",
    "nb_patents": 74939
  },
  {
    "fua_name": "Phoenix-Mesa-Scottsdale - Az",
    "fua_longitude": "-112.07",
    "fua_latitude": "33.45",
    "nb_patents": null
  },
  {
    "fua_name": "Piatra Neamt",
    "fua_longitude": "26.33",
    "fua_latitude": "46.92",
    "nb_patents": 20
  },
  {
    "fua_name": "Pitesti",
    "fua_longitude": "24.87",
    "fua_latitude": "44.86",
    "nb_patents": 36
  },
  {
    "fua_name": "Pittsburgh-New Castle - Pa",
    "fua_longitude": "-79.9959",
    "fua_latitude": "40.4406",
    "nb_patents": 18302
  },
  {
    "fua_name": "Plock",
    "fua_longitude": "19.7064",
    "fua_latitude": "52.5468",
    "nb_patents": 44
  },
  {
    "fua_name": "Ploie?ti",
    "fua_longitude": "26.03",
    "fua_latitude": "44.94",
    "nb_patents": 59
  },
  {
    "fua_name": "Plovdiv",
    "fua_longitude": "24.75",
    "fua_latitude": "42.15",
    "nb_patents": 90
  },
  {
    "fua_name": "Plymouth",
    "fua_longitude": "-4.1427",
    "fua_latitude": "50.3755",
    "nb_patents": 278
  },
  {
    "fua_name": "Plzen",
    "fua_longitude": "13.3736",
    "fua_latitude": "49.7384",
    "nb_patents": 192
  },
  {
    "fua_name": "Poitiers",
    "fua_longitude": "0.3406",
    "fua_latitude": "46.5803",
    "nb_patents": 820
  },
  {
    "fua_name": "Portland-Lewiston-South Portland - Me",
    "fua_longitude": "-70.25",
    "fua_latitude": "43.66",
    "nb_patents": 2936
  },
  {
    "fua_name": "Portland-Vancouver-Beaverton - Or-Wa",
    "fua_longitude": "-122.68",
    "fua_latitude": "45.52",
    "nb_patents": 32794
  },
  {
    "fua_name": "Porto",
    "fua_longitude": "-8.6291",
    "fua_latitude": "41.1579",
    "nb_patents": 971
  },
  {
    "fua_name": "Porto Alegre",
    "fua_longitude": "-51.2177",
    "fua_latitude": "-30.0346",
    "nb_patents": 72
  },
  {
    "fua_name": "Portsmouth",
    "fua_longitude": "-1.09",
    "fua_latitude": "50.8",
    "nb_patents": 307
  },
  {
    "fua_name": "Poznan",
    "fua_longitude": "16.9252",
    "fua_latitude": "52.4064",
    "nb_patents": 570
  },
  {
    "fua_name": "Praha",
    "fua_longitude": "14.4167",
    "fua_latitude": "50.0833",
    "nb_patents": 2644
  },
  {
    "fua_name": "Prato",
    "fua_longitude": "12.48",
    "fua_latitude": "41.91",
    "nb_patents": 349
  },
  {
    "fua_name": "Puebla",
    "fua_longitude": "-98.2",
    "fua_latitude": "19.04",
    "nb_patents": null
  },
  {
    "fua_name": "Pueblo - Co",
    "fua_longitude": "-4.45",
    "fua_latitude": "36.69",
    "nb_patents": null
  },
  {
    "fua_name": "Radom",
    "fua_longitude": "20.41",
    "fua_latitude": "52.39",
    "nb_patents": 165
  },
  {
    "fua_name": "Raipur",
    "fua_longitude": "81.63",
    "fua_latitude": "21.25",
    "nb_patents": 85
  },
  {
    "fua_name": "Raleigh-Durham-Cary - Nc",
    "fua_longitude": "-78.64",
    "fua_latitude": "35.78",
    "nb_patents": 32087
  },
  {
    "fua_name": "Rapid City - Sd",
    "fua_longitude": "-103.23",
    "fua_latitude": "44.08",
    "nb_patents": null
  },
  {
    "fua_name": "Ravenna",
    "fua_longitude": "12.2",
    "fua_latitude": "44.42",
    "nb_patents": 900
  },
  {
    "fua_name": "Recife",
    "fua_longitude": "-34.9286",
    "fua_latitude": "-8.0522",
    "nb_patents": 129
  },
  {
    "fua_name": "Redding - Ca",
    "fua_longitude": "-122.39",
    "fua_latitude": "40.58",
    "nb_patents": 363
  },
  {
    "fua_name": "Regensburg",
    "fua_longitude": "12.1",
    "fua_latitude": "49.02",
    "nb_patents": 14077
  },
  {
    "fua_name": "Reggio di Calabria",
    "fua_longitude": "15.64",
    "fua_latitude": "38.11",
    "nb_patents": 111
  },
  {
    "fua_name": "Reggio nell'Emilia",
    "fua_longitude": "10.63",
    "fua_latitude": "44.7",
    "nb_patents": 1399
  },
  {
    "fua_name": "Reims",
    "fua_longitude": "4.0317",
    "fua_latitude": "49.2583",
    "nb_patents": 1255
  },
  {
    "fua_name": "Remscheid",
    "fua_longitude": "7.2",
    "fua_latitude": "51.17",
    "nb_patents": 1245
  },
  {
    "fua_name": "Rennes",
    "fua_longitude": "-1.6778",
    "fua_latitude": "48.1173",
    "nb_patents": 5453
  },
  {
    "fua_name": "Reno-Sparks - Nv",
    "fua_longitude": "-119.81",
    "fua_latitude": "39.53",
    "nb_patents": null
  },
  {
    "fua_name": "Reutlingen",
    "fua_longitude": "9.2",
    "fua_latitude": "48.49",
    "nb_patents": 10927
  },
  {
    "fua_name": "Richmond - Va",
    "fua_longitude": "-77.43",
    "fua_latitude": "37.54",
    "nb_patents": null
  },
  {
    "fua_name": "Riga",
    "fua_longitude": "24.1",
    "fua_latitude": "56.95",
    "nb_patents": 752
  },
  {
    "fua_name": "Rijeka",
    "fua_longitude": "14.45",
    "fua_latitude": "45.33",
    "nb_patents": 112
  },
  {
    "fua_name": "Rimini",
    "fua_longitude": "12.57",
    "fua_latitude": "44.06",
    "nb_patents": 397
  },
  {
    "fua_name": "Riminicu Vilcea",
    "fua_longitude": "24.3667",
    "fua_latitude": "44.4333",
    "nb_patents": 23
  },
  {
    "fua_name": "Rio De Janeiro",
    "fua_longitude": "-43.1729",
    "fua_latitude": "-22.9068",
    "nb_patents": 1789
  },
  {
    "fua_name": "Roanoke - Va",
    "fua_longitude": "-79.94",
    "fua_latitude": "37.27",
    "nb_patents": 3982
  },
  {
    "fua_name": "Rochester-Batavia-Seneca Falls - Ny",
    "fua_longitude": "-77.61",
    "fua_latitude": "43.16",
    "nb_patents": 23116
  },
  {
    "fua_name": "Roma",
    "fua_longitude": null,
    "fua_latitude": null,
    "nb_patents": 5978
  },
  {
    "fua_name": "Rosenheim",
    "fua_longitude": "12.12",
    "fua_latitude": "47.86",
    "nb_patents": 4078
  },
  {
    "fua_name": "Rostock",
    "fua_longitude": "12.13",
    "fua_latitude": "54.08",
    "nb_patents": 996
  },
  {
    "fua_name": "Rotterdam",
    "fua_longitude": "4.47917",
    "fua_latitude": "51.9225",
    "nb_patents": 6566
  },
  {
    "fua_name": "Rouen - Le Havre",
    "fua_longitude": "1.1",
    "fua_latitude": "49.44",
    "nb_patents": 3710
  },
  {
    "fua_name": "Ruhrgebiet",
    "fua_longitude": "7.01",
    "fua_latitude": "51.45",
    "nb_patents": 32857
  },
  {
    "fua_name": "Rybnik",
    "fua_longitude": "18.54",
    "fua_latitude": "50.09",
    "nb_patents": 73
  },
  {
    "fua_name": "Rzeszów",
    "fua_longitude": "22",
    "fua_latitude": "50.03",
    "nb_patents": 159
  },
  {
    "fua_name": "s Hertogenbosch",
    "fua_longitude": "5.3037",
    "fua_latitude": "51.6978",
    "nb_patents": 3219
  },
  {
    "fua_name": "s' Gravenhage",
    "fua_longitude": "4.3",
    "fua_latitude": "52.07",
    "nb_patents": 7711
  },
  {
    "fua_name": "Saarbrücken",
    "fua_longitude": "6.9833",
    "fua_latitude": "49.2333",
    "nb_patents": 4550
  },
  {
    "fua_name": "Sacramento-Arden-Arcade-Truckee - Ca-Nv",
    "fua_longitude": "-121.49",
    "fua_latitude": "38.58",
    "nb_patents": 10540
  },
  {
    "fua_name": "Saga",
    "fua_longitude": "95.9625",
    "fua_latitude": "21.8841",
    "nb_patents": 877
  },
  {
    "fua_name": "Saint Petersburg",
    "fua_longitude": "30.33",
    "fua_latitude": "59.93",
    "nb_patents": 3872
  },
  {
    "fua_name": "Saint-Denis de la Reunion",
    "fua_longitude": "55.45",
    "fua_latitude": "-20.88",
    "nb_patents": 142
  },
  {
    "fua_name": "Saint-Etienne",
    "fua_longitude": "4.39",
    "fua_latitude": "45.43",
    "nb_patents": 1913
  },
  {
    "fua_name": "Salamanca",
    "fua_longitude": "-5.66",
    "fua_latitude": "40.96",
    "nb_patents": 195
  },
  {
    "fua_name": "Salerno",
    "fua_longitude": "14.76",
    "fua_latitude": "40.68",
    "nb_patents": 585
  },
  {
    "fua_name": "Salina - Ks",
    "fua_longitude": "-97.6114",
    "fua_latitude": "38.8403",
    "nb_patents": null
  },
  {
    "fua_name": "Salt Lake City-Ogden-Clearfield - Ut",
    "fua_longitude": "-111.891",
    "fua_latitude": "40.7608",
    "nb_patents": 17230
  },
  {
    "fua_name": "Salvador",
    "fua_longitude": "-38.5",
    "fua_latitude": "-12.97",
    "nb_patents": 157
  },
  {
    "fua_name": "Salzburg",
    "fua_longitude": "13.055",
    "fua_latitude": "47.8095",
    "nb_patents": 1569
  },
  {
    "fua_name": "San Angelo - Tx",
    "fua_longitude": "-100.44",
    "fua_latitude": "31.46",
    "nb_patents": null
  },
  {
    "fua_name": "San Antonio - Tx",
    "fua_longitude": "-98.4936",
    "fua_latitude": "29.4241",
    "nb_patents": null
  },
  {
    "fua_name": "San Diego-Carlsbad-San Marcos - Ca",
    "fua_longitude": "-117.1611",
    "fua_latitude": "32.7157",
    "nb_patents": 77484
  },
  {
    "fua_name": "San Jose-San Francisco-Oakland - Ca",
    "fua_longitude": "-122.42",
    "fua_latitude": "37.77",
    "nb_patents": 269073
  },
  {
    "fua_name": "San Sebastian",
    "fua_longitude": "-1.98",
    "fua_latitude": "43.32",
    "nb_patents": 1070
  },
  {
    "fua_name": "Santa Cruz de Tenerife",
    "fua_longitude": "-16.25",
    "fua_latitude": "28.47",
    "nb_patents": 209
  },
  {
    "fua_name": "Santa Fe-Espanola - Nm",
    "fua_longitude": "-105.94",
    "fua_latitude": "35.68",
    "nb_patents": null
  },
  {
    "fua_name": "Santander",
    "fua_longitude": "-3.81",
    "fua_latitude": "43.46",
    "nb_patents": 321
  },
  {
    "fua_name": "Santiago Metropolitan",
    "fua_longitude": "-70.67",
    "fua_latitude": "-33.45",
    "nb_patents": 1562
  },
  {
    "fua_name": "Sao Paulo",
    "fua_longitude": "-46.63",
    "fua_latitude": "-23.55",
    "nb_patents": 6497
  },
  {
    "fua_name": "Sarasota-Bradenton-Venice - Fl",
    "fua_longitude": "-82.5307",
    "fua_latitude": "27.3364",
    "nb_patents": 3702
  },
  {
    "fua_name": "Sassari",
    "fua_longitude": "8.56",
    "fua_latitude": "40.73",
    "nb_patents": 144
  },
  {
    "fua_name": "Satu Mare",
    "fua_longitude": "22.88",
    "fua_latitude": "47.79",
    "nb_patents": 28
  },
  {
    "fua_name": "Savannah-Hinesville-Fort Stewart - Ga",
    "fua_longitude": "-81.09",
    "fua_latitude": "32.08",
    "nb_patents": null
  },
  {
    "fua_name": "Schweinfurt",
    "fua_longitude": "10.23",
    "fua_latitude": "50.04",
    "nb_patents": 3698
  },
  {
    "fua_name": "Schwerin",
    "fua_longitude": "11.41",
    "fua_latitude": "53.63",
    "nb_patents": 374
  },
  {
    "fua_name": "Scotts Bluff - Ne",
    "fua_longitude": "-103.6674",
    "fua_latitude": "41.8715",
    "nb_patents": null
  },
  {
    "fua_name": "Scranton--Wilkes-Barre - Pa",
    "fua_longitude": "-75.66",
    "fua_latitude": "41.41",
    "nb_patents": 847
  },
  {
    "fua_name": "Seattle-Tacoma-Olympia - Wa",
    "fua_longitude": "-122.33",
    "fua_latitude": "47.61",
    "nb_patents": 46933
  },
  {
    "fua_name": "Seoul",
    "fua_longitude": "126.978",
    "fua_latitude": "37.5665",
    "nb_patents": 172303
  },
  {
    "fua_name": "Sevilla",
    "fua_longitude": "-5.98",
    "fua_latitude": "37.38",
    "nb_patents": 1442
  },
  {
    "fua_name": "Shanghai",
    "fua_longitude": "121.46",
    "fua_latitude": "31.22",
    "nb_patents": 34429
  },
  {
    "fua_name": "Sheffield",
    "fua_longitude": "-1.47",
    "fua_latitude": "53.38",
    "nb_patents": 1776
  },
  {
    "fua_name": "Shenyang",
    "fua_longitude": "123.43",
    "fua_latitude": "41.8",
    "nb_patents": 4008
  },
  {
    "fua_name": "Shenzhen",
    "fua_longitude": "114.06",
    "fua_latitude": "22.54",
    "nb_patents": 148188
  },
  {
    "fua_name": "Shiga",
    "fua_longitude": "139.36",
    "fua_latitude": "35.44",
    "nb_patents": 12588
  },
  {
    "fua_name": "Shijiazhuang",
    "fua_longitude": "114.47",
    "fua_latitude": "38.04",
    "nb_patents": 2266
  },
  {
    "fua_name": "Shimane",
    "fua_longitude": "133.05",
    "fua_latitude": "35.47",
    "nb_patents": 458
  },
  {
    "fua_name": "Shizuoka",
    "fua_longitude": "138.38",
    "fua_latitude": "34.97",
    "nb_patents": 24433
  },
  {
    "fua_name": "Shreveport-Bossier City-Minden - La",
    "fua_longitude": "-93.7502",
    "fua_latitude": "32.5252",
    "nb_patents": 415
  },
  {
    "fua_name": "Siauliai",
    "fua_longitude": "23.31",
    "fua_latitude": "55.93",
    "nb_patents": 2
  },
  {
    "fua_name": "Sibiu",
    "fua_longitude": "24.1256",
    "fua_latitude": "45.7983",
    "nb_patents": 35
  },
  {
    "fua_name": "Siegen",
    "fua_longitude": "8.0223",
    "fua_latitude": "50.8748",
    "nb_patents": 2546
  },
  {
    "fua_name": "Singapore",
    "fua_longitude": "103.82",
    "fua_latitude": "1.35",
    "nb_patents": 16606
  },
  {
    "fua_name": "Sioux City-Vermillion - Ia-Ne-Sd",
    "fua_longitude": "-96.4049",
    "fua_latitude": "42.4963",
    "nb_patents": null
  },
  {
    "fua_name": "Sioux Falls - Sd",
    "fua_longitude": "-96.7",
    "fua_latitude": "43.55",
    "nb_patents": null
  },
  {
    "fua_name": "Skopje",
    "fua_longitude": "21.428",
    "fua_latitude": "41.9973",
    "nb_patents": null
  },
  {
    "fua_name": "Slupsk",
    "fua_longitude": "17.03",
    "fua_latitude": "54.47",
    "nb_patents": 20
  },
  {
    "fua_name": "Sofia",
    "fua_longitude": "23.319941",
    "fua_latitude": "42.698334",
    "nb_patents": 754
  },
  {
    "fua_name": "Solingen",
    "fua_longitude": "7.08",
    "fua_latitude": "51.17",
    "nb_patents": 2014
  },
  {
    "fua_name": "South Bend-Mishawaka - In-Mi",
    "fua_longitude": "-86.25",
    "fua_latitude": "41.68",
    "nb_patents": 3731
  },
  {
    "fua_name": "Southampton",
    "fua_longitude": "-1.404351",
    "fua_latitude": "50.9097",
    "nb_patents": 10928
  },
  {
    "fua_name": "Split",
    "fua_longitude": "16.44",
    "fua_latitude": "43.5",
    "nb_patents": 161
  },
  {
    "fua_name": "Spokane - Wa",
    "fua_longitude": "-117.43",
    "fua_latitude": "47.66",
    "nb_patents": 2638
  },
  {
    "fua_name": "Springfield - Il",
    "fua_longitude": "-89.65",
    "fua_latitude": "39.78",
    "nb_patents": 1114
  },
  {
    "fua_name": "Springfield - Mo",
    "fua_longitude": "-93.29",
    "fua_latitude": "37.2",
    "nb_patents": null
  },
  {
    "fua_name": "St. Louis-St. Charles-Farmington - Mo-Il",
    "fua_longitude": "-90.1994",
    "fua_latitude": "38.627",
    "nb_patents": null
  },
  {
    "fua_name": "State College - Pa",
    "fua_longitude": "-77.86",
    "fua_latitude": "40.79",
    "nb_patents": 2449
  },
  {
    "fua_name": "Stavanger",
    "fua_longitude": "5.73",
    "fua_latitude": "58.97",
    "nb_patents": 3203
  },
  {
    "fua_name": "Stockholm",
    "fua_longitude": "18.07",
    "fua_latitude": "59.33",
    "nb_patents": 35317
  },
  {
    "fua_name": "Stoke-on-Trent",
    "fua_longitude": "-2.18",
    "fua_latitude": "53",
    "nb_patents": 2332
  },
  {
    "fua_name": "Strasbourg",
    "fua_longitude": "7.75",
    "fua_latitude": "48.58",
    "nb_patents": 5150
  },
  {
    "fua_name": "Stuttgart",
    "fua_longitude": "9.18",
    "fua_latitude": "48.78",
    "nb_patents": 77723
  },
  {
    "fua_name": "Suceava",
    "fua_longitude": "26.25",
    "fua_latitude": "47.64",
    "nb_patents": 10
  },
  {
    "fua_name": "Sunderland",
    "fua_longitude": "-1.3811",
    "fua_latitude": "54.9061",
    "nb_patents": 321
  },
  {
    "fua_name": "Swansea",
    "fua_longitude": "-3.9436",
    "fua_latitude": "51.6214",
    "nb_patents": 1005
  },
  {
    "fua_name": "Swindon",
    "fua_longitude": "-1.77",
    "fua_latitude": "51.55",
    "nb_patents": 1382
  },
  {
    "fua_name": "Syracuse",
    "fua_longitude": "-76.1474",
    "fua_latitude": "43.0481",
    "nb_patents": 81
  },
  {
    "fua_name": "Syracuse-Auburn - Ny",
    "fua_longitude": "-76.15",
    "fua_latitude": "43.05",
    "nb_patents": 9290
  },
  {
    "fua_name": "Szczecin",
    "fua_longitude": "14.53",
    "fua_latitude": "53.43",
    "nb_patents": 118
  },
  {
    "fua_name": "Székesfehérvár",
    "fua_longitude": "18.4221",
    "fua_latitude": "47.1869",
    "nb_patents": 262
  },
  {
    "fua_name": "Taiyuan",
    "fua_longitude": "112.53",
    "fua_latitude": "37.87",
    "nb_patents": 1071
  },
  {
    "fua_name": "Tallahassee - Fl",
    "fua_longitude": "-84.28",
    "fua_latitude": "30.44",
    "nb_patents": 654
  },
  {
    "fua_name": "Tallinn",
    "fua_longitude": "24.7536",
    "fua_latitude": "59.437",
    "nb_patents": 597
  },
  {
    "fua_name": "Tampa-St. Petersburg-Clearwater - Fl",
    "fua_longitude": "-82.46",
    "fua_latitude": "27.94",
    "nb_patents": 6832
  },
  {
    "fua_name": "Tampere",
    "fua_longitude": "23.761",
    "fua_latitude": "61.498",
    "nb_patents": 7682
  },
  {
    "fua_name": "Taranto",
    "fua_longitude": "17.247",
    "fua_latitude": "40.4644",
    "nb_patents": 132
  },
  {
    "fua_name": "Tarnów",
    "fua_longitude": "18.83",
    "fua_latitude": "50.57",
    "nb_patents": 55
  },
  {
    "fua_name": "Tarragona",
    "fua_longitude": "1.2445",
    "fua_latitude": "41.1189",
    "nb_patents": 825
  },
  {
    "fua_name": "Tartu",
    "fua_longitude": "26.72",
    "fua_latitude": "58.38",
    "nb_patents": 240
  },
  {
    "fua_name": "Tel Aviv District",
    "fua_longitude": "34.78",
    "fua_latitude": "32.09",
    "nb_patents": 38332
  },
  {
    "fua_name": "Terni",
    "fua_longitude": "12.64",
    "fua_latitude": "42.56",
    "nb_patents": 182
  },
  {
    "fua_name": "Texarkana - Tx-Texarkana - Ar",
    "fua_longitude": "-94.04",
    "fua_latitude": "33.44",
    "nb_patents": null
  },
  {
    "fua_name": "Thessaloniki",
    "fua_longitude": "22.94",
    "fua_latitude": "40.64",
    "nb_patents": 350
  },
  {
    "fua_name": "Tianjin",
    "fua_longitude": "117.3616",
    "fua_latitude": "39.3434",
    "nb_patents": 3102
  },
  {
    "fua_name": "Tijuana",
    "fua_longitude": "-117.03",
    "fua_latitude": "32.52",
    "nb_patents": null
  },
  {
    "fua_name": "Tilburg",
    "fua_longitude": "5.08",
    "fua_latitude": "51.56",
    "nb_patents": 1833
  },
  {
    "fua_name": "Timisoara",
    "fua_longitude": "21.23",
    "fua_latitude": "45.75",
    "nb_patents": 163
  },
  {
    "fua_name": "Tirgu Mures",
    "fua_longitude": "24.55",
    "fua_latitude": "46.54",
    "nb_patents": 22
  },
  {
    "fua_name": "Tochigi",
    "fua_longitude": "139.7306",
    "fua_latitude": "36.3811",
    "nb_patents": 8071
  },
  {
    "fua_name": "Tokushima",
    "fua_longitude": "134.55",
    "fua_latitude": "34.07",
    "nb_patents": 2326
  },
  {
    "fua_name": "Tokyo",
    "fua_longitude": "139.65",
    "fua_latitude": "35.68",
    "nb_patents": 402097
  },
  {
    "fua_name": "Toledo-Fremont - Oh",
    "fua_longitude": "-83.54",
    "fua_latitude": "41.65",
    "nb_patents": 3914
  },
  {
    "fua_name": "Topeka - Ks",
    "fua_longitude": "-95.68",
    "fua_latitude": "39.05",
    "nb_patents": null
  },
  {
    "fua_name": "Torino",
    "fua_longitude": "7.68",
    "fua_latitude": "45.07",
    "nb_patents": 5246
  },
  {
    "fua_name": "Toronto metropolitan municipality, ON",
    "fua_longitude": "-79.42",
    "fua_latitude": "43.7",
    "nb_patents": 28284
  },
  {
    "fua_name": "Tottori",
    "fua_longitude": "134.23",
    "fua_latitude": "35.5",
    "nb_patents": 679
  },
  {
    "fua_name": "Toulouse",
    "fua_longitude": "1.4437",
    "fua_latitude": "43.6043",
    "nb_patents": 7499
  },
  {
    "fua_name": "Tours",
    "fua_longitude": "0.6848",
    "fua_latitude": "47.3941",
    "nb_patents": 1574
  },
  {
    "fua_name": "Toyama",
    "fua_longitude": "137.21",
    "fua_latitude": "36.7",
    "nb_patents": 3591
  },
  {
    "fua_name": "Traverse City - Mi",
    "fua_longitude": "-85.62",
    "fua_latitude": "44.76",
    "nb_patents": 438
  },
  {
    "fua_name": "Trento",
    "fua_longitude": "11.12",
    "fua_latitude": "46.07",
    "nb_patents": 863
  },
  {
    "fua_name": "Trier",
    "fua_longitude": "6.64",
    "fua_latitude": "49.75",
    "nb_patents": 364
  },
  {
    "fua_name": "Trieste",
    "fua_longitude": "13.77",
    "fua_latitude": "45.65",
    "nb_patents": 608
  },
  {
    "fua_name": "Trondheim",
    "fua_longitude": "10.4",
    "fua_latitude": "63.43",
    "nb_patents": 2502
  },
  {
    "fua_name": "Tucson - Az",
    "fua_longitude": "-110.93",
    "fua_latitude": "32.22",
    "nb_patents": 5435
  },
  {
    "fua_name": "Tulsa-Bartlesville - Ok",
    "fua_longitude": "-95.9928",
    "fua_latitude": "36.154",
    "nb_patents": 4045
  },
  {
    "fua_name": "Tupelo - Ms",
    "fua_longitude": "-88.7",
    "fua_latitude": "34.26",
    "nb_patents": 599
  },
  {
    "fua_name": "Turku",
    "fua_longitude": "22.27",
    "fua_latitude": "60.45",
    "nb_patents": 3939
  },
  {
    "fua_name": "Twin Falls - Id",
    "fua_longitude": "-114.46",
    "fua_latitude": "42.56",
    "nb_patents": 178
  },
  {
    "fua_name": "Ulm",
    "fua_longitude": "9.9916",
    "fua_latitude": "48.3984",
    "nb_patents": 8037
  },
  {
    "fua_name": "Ulsan",
    "fua_longitude": "129.32",
    "fua_latitude": "35.53",
    "nb_patents": 2314
  },
  {
    "fua_name": "Uppsala",
    "fua_longitude": "17.64",
    "fua_latitude": "59.86",
    "nb_patents": 6224
  },
  {
    "fua_name": "Urumqi",
    "fua_longitude": "87.6",
    "fua_latitude": "43.82",
    "nb_patents": 254
  },
  {
    "fua_name": "Utrecht",
    "fua_longitude": "5.13",
    "fua_latitude": "52.08",
    "nb_patents": 6358
  },
  {
    "fua_name": "Vaduz (Liechtenstein)",
    "fua_longitude": "9.5209",
    "fua_latitude": "47.141",
    "nb_patents": 354
  },
  {
    "fua_name": "Valencia",
    "fua_longitude": "-0.38",
    "fua_latitude": "39.47",
    "nb_patents": 2611
  },
  {
    "fua_name": "Valladolid",
    "fua_longitude": "-4.72",
    "fua_latitude": "41.65",
    "nb_patents": 386
  },
  {
    "fua_name": "Valletta",
    "fua_longitude": "14.5146",
    "fua_latitude": "35.8989",
    "nb_patents": 134
  },
  {
    "fua_name": "Valley of Mexico",
    "fua_longitude": "-99.13",
    "fua_latitude": "19.43",
    "nb_patents": null
  },
  {
    "fua_name": "Varna",
    "fua_longitude": "27.92",
    "fua_latitude": "43.21",
    "nb_patents": 62
  },
  {
    "fua_name": "Vasteras",
    "fua_longitude": "16.54",
    "fua_latitude": "59.61",
    "nb_patents": 3963
  },
  {
    "fua_name": "Veluwe",
    "fua_longitude": "5.69",
    "fua_latitude": "52.17",
    "nb_patents": 3324
  },
  {
    "fua_name": "Venezia",
    "fua_longitude": "12.32",
    "fua_latitude": "45.44",
    "nb_patents": 1349
  },
  {
    "fua_name": "Verona",
    "fua_longitude": "10.99",
    "fua_latitude": "45.44",
    "nb_patents": 1646
  },
  {
    "fua_name": "Vicenza",
    "fua_longitude": "11.54",
    "fua_latitude": "45.55",
    "nb_patents": 2685
  },
  {
    "fua_name": "Vigo",
    "fua_longitude": "-8.7226",
    "fua_latitude": "42.2328",
    "nb_patents": 492
  },
  {
    "fua_name": "Vilnius",
    "fua_longitude": "25.32",
    "fua_latitude": "54.68",
    "nb_patents": 360
  },
  {
    "fua_name": "Virginia Beach-Norfolk-Newport News - Va-Nc",
    "fua_longitude": "-75.98",
    "fua_latitude": "36.85",
    "nb_patents": null
  },
  {
    "fua_name": "Vitoria/Gasteiz",
    "fua_longitude": "-2.67",
    "fua_latitude": "42.85",
    "nb_patents": 472
  },
  {
    "fua_name": "Wakayama",
    "fua_longitude": "135.1709",
    "fua_latitude": "34.2305",
    "nb_patents": 2445
  },
  {
    "fua_name": "Walbrzych",
    "fua_longitude": "16.2845",
    "fua_latitude": "50.784",
    "nb_patents": 63
  },
  {
    "fua_name": "Warszawa",
    "fua_longitude": "21.0122",
    "fua_latitude": "52.2297",
    "nb_patents": 2454
  },
  {
    "fua_name": "Washington-Baltimore-N.Virginia - Dc-Md-Va-Wv",
    "fua_longitude": "-76.61",
    "fua_latitude": "39.29",
    "nb_patents": 62935
  },
  {
    "fua_name": "Waterloo-Cedar Falls - Ia",
    "fua_longitude": "-92.3426",
    "fua_latitude": "42.4928",
    "nb_patents": 289
  },
  {
    "fua_name": "Wausau-Merrill - Wi",
    "fua_longitude": "-89.63",
    "fua_latitude": "44.96",
    "nb_patents": 667
  },
  {
    "fua_name": "Weifang",
    "fua_longitude": "119.1",
    "fua_latitude": "36.71",
    "nb_patents": 13660
  },
  {
    "fua_name": "Wellington",
    "fua_longitude": "174.7762",
    "fua_latitude": "-41.2865",
    "nb_patents": 1129
  },
  {
    "fua_name": "Wenatchee - Wa",
    "fua_longitude": "-120.3103",
    "fua_latitude": "47.4235",
    "nb_patents": 164
  },
  {
    "fua_name": "West",
    "fua_longitude": null,
    "fua_latitude": null,
    "nb_patents": 1925
  },
  {
    "fua_name": "West Midlands urban area",
    "fua_longitude": "-1.89",
    "fua_latitude": "52.48",
    "nb_patents": 4000
  },
  {
    "fua_name": "West Sussex",
    "fua_longitude": "-0.46",
    "fua_latitude": "50.92",
    "nb_patents": 3355
  },
  {
    "fua_name": "Wetzlar",
    "fua_longitude": "8.5066",
    "fua_latitude": "50.5546",
    "nb_patents": 1687
  },
  {
    "fua_name": "Wichita Falls - Tx",
    "fua_longitude": "-98.4934",
    "fua_latitude": "33.9137",
    "nb_patents": null
  },
  {
    "fua_name": "Wichita-Winfield - Ks",
    "fua_longitude": "-97.3301",
    "fua_latitude": "37.6872",
    "nb_patents": null
  },
  {
    "fua_name": "Wien",
    "fua_longitude": "16.3738",
    "fua_latitude": "48.2082",
    "nb_patents": 13920
  },
  {
    "fua_name": "Wiesbaden",
    "fua_longitude": "8.2493",
    "fua_latitude": "50.0827",
    "nb_patents": 10006
  },
  {
    "fua_name": "Winnipeg",
    "fua_longitude": "-97.1384",
    "fua_latitude": "49.8951",
    "nb_patents": 1243
  },
  {
    "fua_name": "Worcestershire",
    "fua_longitude": "-2.22",
    "fua_latitude": "52.192",
    "nb_patents": 2714
  },
  {
    "fua_name": "Wroclaw",
    "fua_longitude": "17.0385",
    "fua_latitude": "51.1079",
    "nb_patents": 787
  },
  {
    "fua_name": "Wroclawek",
    "fua_longitude": "19.0678",
    "fua_latitude": "52.6481",
    "nb_patents": 187
  },
  {
    "fua_name": "Wuhan",
    "fua_longitude": "114.3055",
    "fua_latitude": "30.5928",
    "nb_patents": 7692
  },
  {
    "fua_name": "Wuppertal",
    "fua_longitude": "7.1508",
    "fua_latitude": "51.2562",
    "nb_patents": 4866
  },
  {
    "fua_name": "Würzburg",
    "fua_longitude": "9.94",
    "fua_latitude": "49.79",
    "nb_patents": 6233
  },
  {
    "fua_name": "Xiamen",
    "fua_longitude": "118.08",
    "fua_latitude": "24.48",
    "nb_patents": 6439
  },
  {
    "fua_name": "Xian",
    "fua_longitude": "108.9398",
    "fua_latitude": "34.3416",
    "nb_patents": 2680
  },
  {
    "fua_name": "Xining",
    "fua_longitude": "101.77",
    "fua_latitude": "36.62",
    "nb_patents": 58
  },
  {
    "fua_name": "Yamagata",
    "fua_longitude": "140.34",
    "fua_latitude": "38.25",
    "nb_patents": 1572
  },
  {
    "fua_name": "Yamaguchi",
    "fua_longitude": "131.471389",
    "fua_latitude": "34.185833",
    "nb_patents": 5104
  },
  {
    "fua_name": "Yamanashi",
    "fua_longitude": "138.5684",
    "fua_latitude": "35.6642",
    "nb_patents": 4256
  },
  {
    "fua_name": "Yinchuan",
    "fua_longitude": "106.27",
    "fua_latitude": "38.47",
    "nb_patents": 143
  },
  {
    "fua_name": "York",
    "fua_longitude": "-1.08",
    "fua_latitude": "53.96",
    "nb_patents": 1174
  },
  {
    "fua_name": "Zaragoza",
    "fua_longitude": "-0.88",
    "fua_latitude": "41.65",
    "nb_patents": 1292
  },
  {
    "fua_name": "Zhengzhou",
    "fua_longitude": "113.63",
    "fua_latitude": "34.75",
    "nb_patents": 1928
  },
  {
    "fua_name": "Zielona Gora",
    "fua_longitude": "15.50643",
    "fua_latitude": "51.93548",
    "nb_patents": 87
  },
  {
    "fua_name": "Zürich",
    "fua_longitude": "8.5417",
    "fua_latitude": "47.3769",
    "nb_patents": 26563
  },
  {
    "fua_name": "Zwickau",
    "fua_longitude": "12.49",
    "fua_latitude": "50.71",
    "nb_patents": 714
  },
  {
    "fua_name": "Zwolle",
    "fua_longitude": "6.083",
    "fua_latitude": "52.5168",
    "nb_patents": 924
  },
  {
    "fua_name": null,
    "fua_longitude": null,
    "fua_latitude": null,
    "nb_patents": null
  }
]
