[{"city":"Herat","value":6.4069,"population":606000,"latitude":34.3482,"longitude":62.1997,"slug":1},{"city":"Kabul","value":8.3481,"population":4222000,"latitude":34.5289,"longitude":69.1725,"slug":2},{"city":"Kandahar","value":6.2106,"population":498000,"latitude":31.6133,"longitude":65.7101,"slug":3},{"city":"Mazar-e Sharif","value":6.2785,"population":533000,"latitude":36.709,"longitude":67.1109,"slug":4},{"city":"Tiran<eb> (Tirana)","value":6.2025,"population":494000,"latitude":41.3275,"longitude":19.8189,"slug":5},{"city":"Annaba","value":5.8805,"population":358000,"latitude":36.9,"longitude":7.7667,"slug":6},{"city":"Batna","value":5.7961,"population":329000,"latitude":35.556,"longitude":6.1741,"slug":7},{"city":"Blida","value":6.1591,"population":473000,"latitude":36.4808,"longitude":2.8319,"slug":8},{"city":"El Djaza<ef>r  (Algiers)","value":7.9259,"population":2768000,"latitude":36.7525,"longitude":3.042,"slug":9},{"city":"El Djelfa","value":6.2206,"population":503000,"latitude":34.6728,"longitude":3.263,"slug":10},{"city":"Qacentina","value":6.0259,"population":414000,"latitude":36.3549,"longitude":6.6073,"slug":11},{"city":"S<e9>tif","value":5.7462,"population":313000,"latitude":36.1911,"longitude":5.4137,"slug":12},{"city":"Wahran (Oran)","value":6.8013,"population":899000,"latitude":35.6911,"longitude":-0.6417,"slug":13},{"city":"Benguela","value":6.5723,"population":715000,"latitude":-12.576,"longitude":13.405,"slug":14},{"city":"Cabinda","value":6.6567,"population":778000,"latitude":-5.55,"longitude":12.2,"slug":15},{"city":"Cuito","value":6.2823,"population":535000,"latitude":-12.383,"longitude":16.933,"slug":16},{"city":"Huambo","value":6.5088,"population":671000,"latitude":-12.7761,"longitude":15.7392,"slug":17},{"city":"Lobito","value":6.0544,"population":426000,"latitude":-12.364,"longitude":13.536,"slug":18},{"city":"Luanda","value":9.0276,"population":8330000,"latitude":-8.8368,"longitude":13.2343,"slug":19},{"city":"Lubango","value":6.719,"population":828000,"latitude":-14.9172,"longitude":13.4925,"slug":20},{"city":"Malanje","value":6.4998,"population":665000,"latitude":-9.54,"longitude":16.341,"slug":21},{"city":"Uige","value":6.2364,"population":511000,"latitude":-7.1069,"longitude":15.4406,"slug":22},{"city":"Bahia Blanca","value":5.7557,"population":316000,"latitude":-38.7196,"longitude":-62.2724,"slug":23},{"city":"Buenos Aires","value":9.626,"population":15154000,"latitude":-34.6051,"longitude":-58.4004,"slug":24},{"city":"C<f3>rdoba","value":7.3601,"population":1572000,"latitude":-31.4135,"longitude":-64.1811,"slug":25},{"city":"Corrientes","value":6.0113,"population":408000,"latitude":-27.4806,"longitude":-58.8341,"slug":26},{"city":"La Plata","value":6.7845,"population":884000,"latitude":-34.9215,"longitude":-57.9545,"slug":27},{"city":"Mar Del Plata","value":6.5013,"population":666000,"latitude":-38.0023,"longitude":-57.5575,"slug":28},{"city":"Mendoza","value":7.0673,"population":1173000,"latitude":-32.8908,"longitude":-68.8272,"slug":29},{"city":"Neuqu<e9>n-Plottier-Cipolletti","value":6.0137,"population":409000,"latitude":-38.9514,"longitude":-68.0648,"slug":30},{"city":"Posadas","value":5.9636,"population":389000,"latitude":-27.3671,"longitude":-55.8961,"slug":31},{"city":"Resistencia","value":6.0684,"population":432000,"latitude":-27.4606,"longitude":-58.9839,"slug":32},{"city":"Rosario","value":7.3343,"population":1532000,"latitude":-32.9468,"longitude":-60.6393,"slug":33},{"city":"Salta","value":6.5294,"population":685000,"latitude":-24.7859,"longitude":-65.4117,"slug":34},{"city":"San Juan","value":6.286,"population":537000,"latitude":-31.5375,"longitude":-68.5364,"slug":35},{"city":"San Miguel de Tucum<e1>n","value":6.8937,"population":986000,"latitude":-26.8241,"longitude":-65.2226,"slug":36},{"city":"San Salvador de Jujuy","value":5.8889,"population":361000,"latitude":-24.1946,"longitude":-65.2971,"slug":37},{"city":"Santa Fe","value":6.3333,"population":563000,"latitude":-31.6327,"longitude":-60.6983,"slug":38},{"city":"Santiago Del Estero","value":6.0776,"population":436000,"latitude":-27.7951,"longitude":-64.2615,"slug":39},{"city":"Yerevan","value":6.9903,"population":1086000,"latitude":40.182,"longitude":44.5146,"slug":40},{"city":"Adelaide","value":7.1974,"population":1336000,"latitude":-34.9287,"longitude":138.5986,"slug":41},{"city":"Brisbane","value":7.7857,"population":2406000,"latitude":-27.4679,"longitude":153.0281,"slug":42},{"city":"Canberra","value":6.1247,"population":457000,"latitude":-35.2835,"longitude":149.1281,"slug":43},{"city":"Central Coast","value":5.8141,"population":335000,"latitude":-33.42,"longitude":151.3958,"slug":44},{"city":"Gold Coast-Tweed Head","value":6.5497,"population":699000,"latitude":-28.0003,"longitude":153.4309,"slug":45},{"city":"Melbourne","value":8.5108,"population":4968000,"latitude":-37.814,"longitude":144.9633,"slug":46},{"city":"Newcastle-Maitland","value":6.1092,"population":450000,"latitude":-32.9249,"longitude":151.7409,"slug":47},{"city":"Perth","value":7.6217,"population":2042000,"latitude":-31.9478,"longitude":115.8525,"slug":48},{"city":"Sunshine Coast","value":5.8493,"population":347000,"latitude":-26.6601,"longitude":153.0995,"slug":49},{"city":"Sydney","value":8.5023,"population":4926000,"latitude":-33.8679,"longitude":151.2073,"slug":50},{"city":"Wollongong","value":5.7203,"population":305000,"latitude":-34.424,"longitude":150.8935,"slug":51},{"city":"Wien (Vienna)","value":7.5653,"population":1930000,"latitude":48.2064,"longitude":16.3707,"slug":52},{"city":"Baku","value":7.7583,"population":2341000,"latitude":40.3777,"longitude":49.892,"slug":53},{"city":"G<e4>nc<e4>","value":5.8319,"population":341000,"latitude":40.6828,"longitude":46.3606,"slug":54},{"city":"Sumquayit","value":5.8693,"population":354000,"latitude":40.5897,"longitude":49.6686,"slug":55},{"city":"Al-Manamah (Manama)","value":6.4536,"population":635000,"latitude":26.2154,"longitude":50.5832,"slug":56},{"city":"Barisal","value":6.1821,"population":484000,"latitude":22.7019,"longitude":90.3711,"slug":57},{"city":"Bogra","value":6.6529,"population":775000,"latitude":24.85,"longitude":89.3667,"slug":58},{"city":"Chittagong","value":8.5212,"population":5020000,"latitude":22.3331,"longitude":91.8364,"slug":59},{"city":"Comilla","value":6.3784,"population":589000,"latitude":23.4578,"longitude":91.2044,"slug":60},{"city":"Dhaka","value":9.9526,"population":21006000,"latitude":23.7104,"longitude":90.4074,"slug":61},{"city":"Khulna","value":6.8607,"population":954000,"latitude":22.8098,"longitude":89.5644,"slug":62},{"city":"Mymensingh","value":6.1312,"population":460000,"latitude":24.75,"longitude":90.4,"slug":63},{"city":"Rajshahi","value":6.8112,"population":908000,"latitude":24.3667,"longitude":88.6,"slug":64},{"city":"Rangpur","value":6.0088,"population":407000,"latitude":25.75,"longitude":89.25,"slug":65},{"city":"Rupganj","value":6.1779,"population":482000,"latitude":23.7926,"longitude":90.5206,"slug":66},{"city":"Sylhet","value":6.7476,"population":852000,"latitude":24.8967,"longitude":91.8717,"slug":67},{"city":"Brest","value":5.8833,"population":359000,"latitude":52.0976,"longitude":23.6878,"slug":68},{"city":"Gomel","value":6.3244,"population":558000,"latitude":52.4345,"longitude":30.9754,"slug":69},{"city":"Grodno","value":5.9584,"population":387000,"latitude":53.6884,"longitude":23.8258,"slug":70},{"city":"Minsk","value":7.6148,"population":2028000,"latitude":53.9,"longitude":27.5667,"slug":71},{"city":"Mogilev","value":5.961,"population":388000,"latitude":53.9141,"longitude":30.3376,"slug":72},{"city":"Vitebsk","value":5.9349,"population":378000,"latitude":55.1905,"longitude":30.2033,"slug":73},{"city":"Antwerpen","value":6.9489,"population":1042000,"latitude":51.2199,"longitude":4.4035,"slug":74},{"city":"Bruxelles-Brussel","value":7.6406,"population":2081000,"latitude":50.8467,"longitude":4.3499,"slug":75},{"city":"Charleroi","value":6.0234,"population":413000,"latitude":50.4114,"longitude":4.4445,"slug":76},{"city":"Gent","value":6.1442,"population":466000,"latitude":51.05,"longitude":3.7167,"slug":77},{"city":"Li<e8>ge","value":6.5191,"population":678000,"latitude":50.6337,"longitude":5.5675,"slug":78},{"city":"Abomey-Calavi","value":6.9622,"population":1056000,"latitude":6.4485,"longitude":2.3557,"slug":79},{"city":"Cotonou","value":6.5396,"population":692000,"latitude":6.3654,"longitude":2.4183,"slug":80},{"city":"Djougou","value":5.8377,"population":343000,"latitude":9.7085,"longitude":1.666,"slug":81},{"city":"Parakou","value":5.8805,"population":358000,"latitude":9.3372,"longitude":2.6303,"slug":82},{"city":"Cochabamba","value":7.1732,"population":1304000,"latitude":-17.3895,"longitude":-66.1568,"slug":83},{"city":"La Paz","value":7.5273,"population":1858000,"latitude":-16.5,"longitude":-68.15,"slug":84},{"city":"Oruro","value":5.7621,"population":318000,"latitude":-17.9833,"longitude":-67.15,"slug":85},{"city":"Santa Cruz","value":7.446,"population":1713000,"latitude":-17.7989,"longitude":-63.1698,"slug":86},{"city":"Sarajevo","value":5.8377,"population":343000,"latitude":43.8486,"longitude":18.3564,"slug":87},{"city":"An<e1>polis","value":5.9532,"population":385000,"latitude":-16.3267,"longitude":-48.9528,"slug":88},{"city":"Aracaju","value":6.9167,"population":1009000,"latitude":-10.9111,"longitude":-37.0717,"slug":89},{"city":"Baixada Santista","value":7.5454,"population":1892000,"latitude":-23.957,"longitude":-46.3266,"slug":90},{"city":"Bauru","value":5.9296,"population":376000,"latitude":-22.3147,"longitude":-49.0606,"slug":91},{"city":"Bel<e9>m","value":7.7553,"population":2334000,"latitude":-1.4561,"longitude":-48.479,"slug":92},{"city":"Belo Horizonte","value":8.7134,"population":6084000,"latitude":-19.9208,"longitude":-43.9378,"slug":93},{"city":"Blumenau","value":5.8522,"population":348000,"latitude":-26.9194,"longitude":-49.0661,"slug":94},{"city":"Boa Vista","value":5.8406,"population":344000,"latitude":2.8197,"longitude":-60.6733,"slug":95},{"city":"Bras<ed>lia","value":8.4438,"population":4646000,"latitude":-15.7797,"longitude":-47.9297,"slug":96},{"city":"Campina Grande","value":5.9915,"population":400000,"latitude":-7.2306,"longitude":-35.8811,"slug":97},{"city":"Campinas","value":8.102,"population":3301000,"latitude":-22.9109,"longitude":-47.0656,"slug":98},{"city":"Campo Grande","value":6.7991,"population":897000,"latitude":-20.4567,"longitude":-54.6185,"slug":99},{"city":"Campos dos Goytacazes","value":6.1115,"population":451000,"latitude":-21.7664,"longitude":-41.3196,"slug":100},{"city":"Caruaru","value":5.8021,"population":331000,"latitude":-8.2833,"longitude":-35.9761,"slug":101},{"city":"Cascavel","value":5.7494,"population":314000,"latitude":-24.9558,"longitude":-53.4553,"slug":102},{"city":"Caxias Do Sul","value":6.1821,"population":484000,"latitude":-29.1681,"longitude":-51.1794,"slug":103},{"city":"Cuiab<e1>","value":6.3784,"population":589000,"latitude":-15.5961,"longitude":-56.0967,"slug":104},{"city":"Curitiba","value":8.2104,"population":3679000,"latitude":-25.4278,"longitude":-49.2731,"slug":105},{"city":"Feira De Santana","value":6.4003,"population":602000,"latitude":-12.2667,"longitude":-38.9667,"slug":106},{"city":"Florian<f3>polis","value":7.1221,"population":1239000,"latitude":-27.5967,"longitude":-48.5492,"slug":107},{"city":"Fortaleza","value":8.3121,"population":4073000,"latitude":-3.7412,"longitude":-38.5436,"slug":108},{"city":"Franca","value":5.8636,"population":352000,"latitude":-20.5386,"longitude":-47.4008,"slug":109},{"city":"Goi<e2>nia","value":7.8973,"population":2690000,"latitude":-16.6786,"longitude":-49.2539,"slug":110},{"city":"Grande S<e3>o Lu<ed>s","value":7.3038,"population":1486000,"latitude":-2.5385,"longitude":-44.2832,"slug":111},{"city":"Grande Vit<f3>ria","value":7.6382,"population":2076000,"latitude":-20.3054,"longitude":-40.3079,"slug":112},{"city":"Jo<e3>o Pessoa","value":7.2284,"population":1378000,"latitude":-7.115,"longitude":-34.8631,"slug":113},{"city":"Joinville","value":7.1724,"population":1303000,"latitude":-26.3044,"longitude":-48.8456,"slug":114},{"city":"Juazeiro Do Norte","value":6.1334,"population":461000,"latitude":-7.2131,"longitude":-39.3153,"slug":115},{"city":"Juiz De Fora","value":6.3544,"population":575000,"latitude":-21.7642,"longitude":-43.3503,"slug":116},{"city":"Jundia<ed>","value":6.5206,"population":679000,"latitude":-23.1883,"longitude":-46.8913,"slug":117},{"city":"Londrina","value":6.7867,"population":886000,"latitude":-23.3103,"longitude":-51.1628,"slug":118},{"city":"Macap<e1>","value":6.1862,"population":486000,"latitude":0.0389,"longitude":-51.0664,"slug":119},{"city":"Macei<f3>","value":7.1877,"population":1323000,"latitude":-9.6658,"longitude":-35.7353,"slug":120},{"city":"Manaus","value":7.7236,"population":2261000,"latitude":-3.1019,"longitude":-60.025,"slug":121},{"city":"Maring<e1>","value":6.0403,"population":420000,"latitude":-23.4253,"longitude":-51.9386,"slug":122},{"city":"Montes Claros","value":5.9865,"population":398000,"latitude":-16.735,"longitude":-43.8617,"slug":123},{"city":"Natal","value":7.2841,"population":1457000,"latitude":-5.795,"longitude":-35.2094,"slug":124},{"city":"Pelotas","value":5.7869,"population":326000,"latitude":-31.7719,"longitude":-52.3425,"slug":125},{"city":"Petrolina","value":6.1675,"population":477000,"latitude":-9.3986,"longitude":-40.5008,"slug":126},{"city":"Piracicaba","value":5.994,"population":401000,"latitude":-22.7253,"longitude":-47.6492,"slug":127},{"city":"Ponta Grossa","value":5.8551,"population":349000,"latitude":-25.095,"longitude":-50.1619,"slug":128},{"city":"P<f4>rto Alegre","value":8.3277,"population":4137000,"latitude":-30.0331,"longitude":-51.23,"slug":129},{"city":"P<f4>rto Velho","value":6.2344,"population":510000,"latitude":-8.7619,"longitude":-63.9039,"slug":130},{"city":"Recife","value":8.3253,"population":4127000,"latitude":-8.0539,"longitude":-34.8811,"slug":131},{"city":"Ribeir<e3>o  Preto","value":6.5709,"population":714000,"latitude":-21.1775,"longitude":-47.8103,"slug":132},{"city":"Rio Branco","value":5.9135,"population":370000,"latitude":-9.9747,"longitude":-67.81,"slug":133},{"city":"Rio de Janeiro","value":9.5073,"population":13458000,"latitude":-22.9028,"longitude":-43.2075,"slug":134},{"city":"Salvador","value":8.253,"population":3839000,"latitude":-12.9711,"longitude":-38.5108,"slug":135},{"city":"S<e3>o Jos<e9> do Rio Preto","value":6.0845,"population":439000,"latitude":-20.8197,"longitude":-49.3794,"slug":136},{"city":"S<e3>o Jos<e9> dos Campos","value":6.582,"population":722000,"latitude":-23.1794,"longitude":-45.8869,"slug":137},{"city":"S<e3>o Paulo","value":10.0008,"population":22043000,"latitude":-23.5475,"longitude":-46.6361,"slug":138},{"city":"Sorocaba","value":6.667,"population":786000,"latitude":-23.5017,"longitude":-47.4581,"slug":139},{"city":"Taubat<e9>","value":5.7462,"population":313000,"latitude":-23.0264,"longitude":-45.5553,"slug":140},{"city":"Teresina","value":6.9285,"population":1021000,"latitude":-5.0892,"longitude":-42.8019,"slug":141},{"city":"Uberaba","value":5.8081,"population":333000,"latitude":-19.7483,"longitude":-47.9319,"slug":142},{"city":"Uberl<e2>ndia","value":6.5323,"population":687000,"latitude":-18.9186,"longitude":-48.2772,"slug":143},{"city":"Vale do A<e7>o","value":6.2577,"population":522000,"latitude":-19.9405,"longitude":-43.9354,"slug":144},{"city":"Vit<f3>ria da Conquista","value":5.793,"population":328000,"latitude":-14.8661,"longitude":-40.8394,"slug":145},{"city":"Volta Redonda","value":6.0981,"population":445000,"latitude":-22.5231,"longitude":-44.1042,"slug":146},{"city":"Plovdiv","value":5.8493,"population":347000,"latitude":42.15,"longitude":24.75,"slug":147},{"city":"Sofia","value":7.1554,"population":1281000,"latitude":42.6975,"longitude":23.3242,"slug":148},{"city":"Varna","value":5.8141,"population":335000,"latitude":43.2167,"longitude":27.9167,"slug":149},{"city":"Bobo-Dioulasso","value":6.8794,"population":972000,"latitude":11.1772,"longitude":-4.2979,"slug":150},{"city":"Ouagadougou","value":7.9302,"population":2780000,"latitude":12.3642,"longitude":-1.5383,"slug":151},{"city":"Bujumbura","value":6.9207,"population":1013000,"latitude":-3.3822,"longitude":29.3644,"slug":152},{"city":"Phnum P<e9>nh (Phnom Penh)","value":7.6392,"population":2078000,"latitude":11.5625,"longitude":104.916,"slug":153},{"city":"Bafoussam","value":6.0497,"population":424000,"latitude":5.4737,"longitude":10.4179,"slug":154},{"city":"Bamenda","value":6.2785,"population":533000,"latitude":5.9527,"longitude":10.1582,"slug":155},{"city":"Douala","value":8.206,"population":3663000,"latitude":4.0483,"longitude":9.7043,"slug":156},{"city":"Garoua","value":5.8464,"population":346000,"latitude":9.3,"longitude":13.4,"slug":157},{"city":"Loum","value":6.2106,"population":498000,"latitude":4.7182,"longitude":9.7351,"slug":158},{"city":"Mbouda","value":6.1862,"population":486000,"latitude":5.6258,"longitude":10.2552,"slug":159},{"city":"Yaound<e9>","value":8.292,"population":3992000,"latitude":3.8667,"longitude":11.5167,"slug":160},{"city":"Calgary","value":7.3441,"population":1547000,"latitude":51.0441,"longitude":-114.0593,"slug":161},{"city":"Edmonton","value":7.2869,"population":1461000,"latitude":53.5434,"longitude":-113.5037,"slug":162},{"city":"Halifax","value":6.0234,"population":413000,"latitude":44.6477,"longitude":-63.5818,"slug":163},{"city":"Hamilton","value":6.6425,"population":767000,"latitude":43.2495,"longitude":-79.8475,"slug":164},{"city":"Kitchener-Cambrigde-Waterloo","value":6.3315,"population":562000,"latitude":43.4254,"longitude":-80.5112,"slug":165},{"city":"London","value":6.2305,"population":508000,"latitude":42.9834,"longitude":-81.233,"slug":166},{"city":"Montr<e9>al","value":8.3478,"population":4221000,"latitude":45.5088,"longitude":-73.5878,"slug":167},{"city":"Oshawa","value":5.9865,"population":398000,"latitude":43.9001,"longitude":-78.8496,"slug":168},{"city":"Ottawa-Gatineau","value":7.2392,"population":1393000,"latitude":45.4166,"longitude":-75.698,"slug":169},{"city":"Qu<e9>bec","value":6.7166,"population":826000,"latitude":46.8123,"longitude":-71.2145,"slug":170},{"city":"Saskatoon","value":5.7838,"population":325000,"latitude":52.1168,"longitude":-106.6345,"slug":171},{"city":"St. Catharines-Niagara","value":6.0307,"population":416000,"latitude":43.1668,"longitude":-79.2496,"slug":172},{"city":"Toronto","value":8.7318,"population":6197000,"latitude":43.7001,"longitude":-79.4163,"slug":173},{"city":"Vancouver","value":7.8559,"population":2581000,"latitude":49.2497,"longitude":-123.1193,"slug":174},{"city":"Victoria","value":5.9558,"population":386000,"latitude":48.4329,"longitude":-123.3693,"slug":175},{"city":"Windsor","value":5.8171,"population":336000,"latitude":42.2811,"longitude":-83.0079,"slug":176},{"city":"Winnipeg","value":6.7056,"population":817000,"latitude":49.8955,"longitude":-97.1294,"slug":177},{"city":"Bangui","value":6.7901,"population":889000,"latitude":4.3612,"longitude":18.555,"slug":178},{"city":"N'Djam<e9>na","value":7.2605,"population":1423000,"latitude":12.1067,"longitude":15.0444,"slug":179},{"city":"Antofagasta","value":6.0845,"population":439000,"latitude":-23.65,"longitude":-70.4,"slug":180},{"city":"Concepci<f3>n","value":6.7811,"population":881000,"latitude":-36.827,"longitude":-73.0498,"slug":181},{"city":"La Serena-Coquimbo","value":6.1821,"population":484000,"latitude":-29.9045,"longitude":-71.2489,"slug":182},{"city":"Santiago","value":8.8198,"population":6767000,"latitude":-33.4569,"longitude":-70.6483,"slug":183},{"city":"Temuco","value":5.8348,"population":342000,"latitude":-38.7333,"longitude":-72.6,"slug":184},{"city":"Valpara<ed>so","value":6.8916,"population":984000,"latitude":-33.0393,"longitude":-71.6273,"slug":185},{"city":"Akesu","value":6.0234,"population":413000,"latitude":41.1695,"longitude":80.2626,"slug":186},{"city":"Ankang","value":6.4552,"population":636000,"latitude":32.6912,"longitude":109.0297,"slug":187},{"city":"Anlu","value":5.8348,"population":342000,"latitude":31.2575,"longitude":113.6783,"slug":188},{"city":"Anning","value":5.7589,"population":317000,"latitude":24.9211,"longitude":102.4784,"slug":189},{"city":"Anqing","value":6.5889,"population":727000,"latitude":30.543,"longitude":117.0533,"slug":190},{"city":"Anqiu","value":6.525,"population":682000,"latitude":36.4342,"longitude":119.1925,"slug":191},{"city":"Anshan","value":7.3957,"population":1629000,"latitude":41.1236,"longitude":122.99,"slug":192},{"city":"Anshun","value":6.3969,"population":600000,"latitude":26.2444,"longitude":105.9324,"slug":193},{"city":"Anyang","value":7.2862,"population":1460000,"latitude":36.0944,"longitude":114.3503,"slug":194},{"city":"Baicheng","value":5.8081,"population":333000,"latitude":45.6183,"longitude":122.8418,"slug":195},{"city":"Baishan","value":6.7117,"population":822000,"latitude":41.9373,"longitude":126.4229,"slug":196},{"city":"Baiyin","value":6.0039,"population":405000,"latitude":36.5487,"longitude":104.1831,"slug":197},{"city":"Baoding","value":7.5888,"population":1976000,"latitude":38.8511,"longitude":115.4903,"slug":198},{"city":"Baoji","value":7.0605,"population":1165000,"latitude":34.3651,"longitude":107.2004,"slug":199},{"city":"Baotou","value":7.6917,"population":2190000,"latitude":40.6522,"longitude":109.8222,"slug":200},{"city":"Bayannaoer","value":6.0936,"population":443000,"latitude":40.7505,"longitude":107.4052,"slug":201},{"city":"Bazhong","value":6.8997,"population":992000,"latitude":31.8662,"longitude":106.7325,"slug":202},{"city":"Beihai","value":6.1883,"population":487000,"latitude":21.4785,"longitude":109.12,"slug":203},{"city":"Beijing","value":9.9264,"population":20463000,"latitude":39.9075,"longitude":116.3972,"slug":204},{"city":"Bengbu","value":6.8046,"population":902000,"latitude":32.9408,"longitude":117.3608,"slug":205},{"city":"Benxi","value":7.0536,"population":1157000,"latitude":41.2886,"longitude":123.765,"slug":206},{"city":"Bijie","value":6.4583,"population":638000,"latitude":27.307,"longitude":105.2837,"slug":207},{"city":"Binzhou","value":6.9884,"population":1084000,"latitude":37.3811,"longitude":118.0109,"slug":208},{"city":"Botou","value":5.9789,"population":395000,"latitude":38.0667,"longitude":116.5667,"slug":209},{"city":"Bozhou","value":6.6093,"population":742000,"latitude":33.8703,"longitude":115.777,"slug":210},{"city":"Cangzhou","value":6.3297,"population":561000,"latitude":38.3167,"longitude":116.8667,"slug":211},{"city":"Cenxi","value":6.3386,"population":566000,"latitude":22.9191,"longitude":110.9945,"slug":212},{"city":"Changchun","value":8.3953,"population":4426000,"latitude":43.8825,"longitude":125.294,"slug":213},{"city":"Changde","value":6.7214,"population":830000,"latitude":29.0464,"longitude":111.6783,"slug":214},{"city":"Changge","value":6.1944,"population":490000,"latitude":34.2224,"longitude":113.7736,"slug":215},{"city":"Changji","value":5.9738,"population":393000,"latitude":44.0117,"longitude":87.3038,"slug":216},{"city":"Changning","value":6.2344,"population":510000,"latitude":26.4078,"longitude":112.3957,"slug":217},{"city":"Changsha","value":8.429,"population":4578000,"latitude":28.2274,"longitude":112.9383,"slug":218},{"city":"Changshu","value":6.8448,"population":939000,"latitude":31.6539,"longitude":120.7467,"slug":219},{"city":"Changyi","value":6.1779,"population":482000,"latitude":36.8546,"longitude":119.3913,"slug":220},{"city":"Changzhi","value":6.7405,"population":846000,"latitude":36.1921,"longitude":113.1155,"slug":221},{"city":"Changzhou, Jiangsu","value":8.1956,"population":3625000,"latitude":31.7943,"longitude":119.9589,"slug":222},{"city":"Chaohu","value":6.1841,"population":485000,"latitude":31.6,"longitude":117.8667,"slug":223},{"city":"Chaoyang","value":6.2897,"population":539000,"latitude":41.5773,"longitude":120.4511,"slug":224},{"city":"Chaozhou","value":7.264,"population":1428000,"latitude":23.6651,"longitude":116.6379,"slug":225},{"city":"Chengde","value":6.7799,"population":880000,"latitude":40.9672,"longitude":117.9322,"slug":226},{"city":"Chengdu","value":9.12,"population":9136000,"latitude":30.6667,"longitude":104.0667,"slug":227},{"city":"Chenzhou","value":6.8669,"population":960000,"latitude":25.8,"longitude":113.0333,"slug":228},{"city":"Chifeng","value":7.0605,"population":1165000,"latitude":42.2646,"longitude":118.9152,"slug":229},{"city":"Chizhou","value":6.1269,"population":458000,"latitude":30.6578,"longitude":117.4831,"slug":230},{"city":"Chongqing","value":9.6723,"population":15872000,"latitude":29.5628,"longitude":106.5528,"slug":231},{"city":"Chuxiong","value":6.2166,"population":501000,"latitude":25.0445,"longitude":101.541,"slug":232},{"city":"Chuzhou","value":6.2577,"population":522000,"latitude":32.2985,"longitude":118.3164,"slug":233},{"city":"Cixi","value":7.3834,"population":1609000,"latitude":30.1761,"longitude":121.2524,"slug":234},{"city":"Dali","value":6.2442,"population":515000,"latitude":25.59,"longitude":100.2235,"slug":235},{"city":"Dalian","value":8.6337,"population":5618000,"latitude":38.9138,"longitude":121.6023,"slug":236},{"city":"Dandong","value":6.7765,"population":877000,"latitude":40.1198,"longitude":124.3739,"slug":237},{"city":"Danyang","value":6.5779,"population":719000,"latitude":32.0008,"longitude":119.5745,"slug":238},{"city":"Danzhou","value":5.9636,"population":389000,"latitude":19.5166,"longitude":109.5752,"slug":239},{"city":"Daqing","value":7.5278,"population":1859000,"latitude":46.5833,"longitude":125,"slug":240},{"city":"Dashiqiao","value":5.9108,"population":369000,"latitude":40.6373,"longitude":122.5025,"slug":241},{"city":"Datong","value":7.4645,"population":1745000,"latitude":40.0805,"longitude":113.293,"slug":242},{"city":"Daye","value":6.3596,"population":578000,"latitude":30.0987,"longitude":114.9703,"slug":243},{"city":"Dazhou","value":6.525,"population":682000,"latitude":31.2159,"longitude":107.5009,"slug":244},{"city":"Dengfeng","value":6.2934,"population":541000,"latitude":34.4553,"longitude":113.0281,"slug":245},{"city":"Dengzhou","value":6.5132,"population":674000,"latitude":32.6822,"longitude":112.0819,"slug":246},{"city":"Deyang","value":6.7534,"population":857000,"latitude":31.1302,"longitude":104.382,"slug":247},{"city":"Dezhou","value":6.8937,"population":986000,"latitude":37.4518,"longitude":116.301,"slug":248},{"city":"Dingzhou","value":5.7807,"population":324000,"latitude":38.5131,"longitude":114.9956,"slug":249},{"city":"Donggang","value":5.9135,"population":370000,"latitude":39.8834,"longitude":124.1462,"slug":250},{"city":"Dongguan","value":8.9103,"population":7408000,"latitude":23.0212,"longitude":113.7414,"slug":251},{"city":"Dongtai","value":6.5177,"population":677000,"latitude":32.8523,"longitude":120.3095,"slug":252},{"city":"Dongyang","value":6.3386,"population":566000,"latitude":29.2753,"longitude":120.2303,"slug":253},{"city":"Dongying","value":7.1515,"population":1276000,"latitude":37.4533,"longitude":118.5785,"slug":254},{"city":"Dujiangyan","value":5.9454,"population":382000,"latitude":30.9966,"longitude":103.6281,"slug":255},{"city":"Emeishan","value":5.9081,"population":368000,"latitude":29.6007,"longitude":103.4856,"slug":256},{"city":"Enping","value":5.9558,"population":386000,"latitude":22.1853,"longitude":112.3048,"slug":257},{"city":"Enshi","value":6.375,"population":587000,"latitude":30.2902,"longitude":109.4785,"slug":258},{"city":"Erduosi (Ordoss)","value":6.561,"population":707000,"latitude":39.5917,"longitude":109.7666,"slug":259},{"city":"Ezhou","value":6.5043,"population":668000,"latitude":30.4001,"longitude":114.8846,"slug":260},{"city":"Fangchenggang","value":6.0403,"population":420000,"latitude":21.7659,"longitude":108.354,"slug":261},{"city":"Feicheng","value":6.3117,"population":551000,"latitude":36.1854,"longitude":116.7674,"slug":262},{"city":"Fengcheng","value":6.1048,"population":448000,"latitude":28.1787,"longitude":115.7758,"slug":263},{"city":"Foshan","value":8.8993,"population":7327000,"latitude":23.0228,"longitude":113.12,"slug":264},{"city":"Fuan","value":6.1291,"population":459000,"latitude":27.0881,"longitude":119.6454,"slug":265},{"city":"Fujin","value":5.7991,"population":330000,"latitude":47.2485,"longitude":132.0373,"slug":266},{"city":"Fuqing","value":6.3716,"population":585000,"latitude":25.725,"longitude":119.3794,"slug":267},{"city":"Fushun, Liaoning","value":7.1585,"population":1285000,"latitude":41.8807,"longitude":123.9467,"slug":268},{"city":"Fuxin","value":6.7322,"population":839000,"latitude":42.0156,"longitude":121.6589,"slug":269},{"city":"Fuyang","value":6.9431,"population":1036000,"latitude":32.8895,"longitude":115.8152,"slug":270},{"city":"Fuzhou, Fujian","value":8.2123,"population":3686000,"latitude":26.0754,"longitude":119.2989,"slug":271},{"city":"Fuzhou, Jiangxi","value":6.8977,"population":990000,"latitude":27.9812,"longitude":116.3557,"slug":272},{"city":"Ganzhou","value":7.1585,"population":1285000,"latitude":25.85,"longitude":114.9333,"slug":273},{"city":"Gaoan","value":6.1291,"population":459000,"latitude":28.4271,"longitude":115.3722,"slug":274},{"city":"Gaomi","value":6.5737,"population":716000,"latitude":36.3833,"longitude":119.7528,"slug":275},{"city":"Gaoping","value":5.9216,"population":373000,"latitude":35.7977,"longitude":112.923,"slug":276},{"city":"Gaoyou","value":6.2305,"population":508000,"latitude":32.7791,"longitude":119.447,"slug":277},{"city":"Gaozhou","value":6.286,"population":537000,"latitude":21.9159,"longitude":110.8499,"slug":278},{"city":"Gongyi","value":6.2364,"population":511000,"latitude":34.76,"longitude":112.9714,"slug":279},{"city":"Gongzhuling","value":5.9216,"population":373000,"latitude":43.5008,"longitude":124.8198,"slug":280},{"city":"Guang'an","value":6.1821,"population":484000,"latitude":30.4639,"longitude":106.6351,"slug":281},{"city":"Guangyuan","value":6.2897,"population":539000,"latitude":32.442,"longitude":105.823,"slug":282},{"city":"Guangzhou, Guangdong","value":9.4957,"population":13302000,"latitude":23.1255,"longitude":113.2574,"slug":283},{"city":"Guigang","value":6.7923,"population":891000,"latitude":23.0964,"longitude":109.6092,"slug":284},{"city":"Guilin","value":7.0335,"population":1134000,"latitude":25.2819,"longitude":110.2864,"slug":285},{"city":"Guiping","value":6.7923,"population":891000,"latitude":23.3934,"longitude":110.0744,"slug":286},{"city":"Guiyang","value":8.1068,"population":3317000,"latitude":26.5833,"longitude":106.7167,"slug":287},{"city":"Haerbin","value":8.762,"population":6387000,"latitude":45.7563,"longitude":126.6467,"slug":288},{"city":"Haicheng","value":6.6631,"population":783000,"latitude":40.8552,"longitude":122.7434,"slug":289},{"city":"Haikou","value":7.5438,"population":1889000,"latitude":20.0274,"longitude":110.3301,"slug":290},{"city":"Hailin","value":5.7777,"population":323000,"latitude":44.5769,"longitude":129.3896,"slug":291},{"city":"Haimen","value":6.4394,"population":626000,"latitude":31.8952,"longitude":121.1684,"slug":292},{"city":"Haining","value":6.2691,"population":528000,"latitude":30.5273,"longitude":120.6897,"slug":293},{"city":"Haiyang","value":5.793,"population":328000,"latitude":36.7823,"longitude":121.1703,"slug":294},{"city":"Hami","value":5.989,"population":399000,"latitude":42.8259,"longitude":93.5169,"slug":295},{"city":"Hanchuan","value":6.5723,"population":715000,"latitude":30.6516,"longitude":113.8329,"slug":296},{"city":"Handan","value":7.911,"population":2727000,"latitude":36.6006,"longitude":114.4678,"slug":297},{"city":"Hangzhou","value":8.9414,"population":7642000,"latitude":30.2937,"longitude":120.1614,"slug":298},{"city":"Hanzhong","value":6.4052,"population":605000,"latitude":33.0728,"longitude":107.0303,"slug":299},{"city":"Hebi","value":6.3386,"population":566000,"latitude":35.747,"longitude":114.2956,"slug":300},{"city":"Hechi","value":6.0283,"population":415000,"latitude":24.6977,"longitude":108.0808,"slug":301},{"city":"Hefei","value":8.3528,"population":4242000,"latitude":31.8639,"longitude":117.2808,"slug":302},{"city":"Hegang","value":6.4599,"population":639000,"latitude":47.3443,"longitude":130.2937,"slug":303},{"city":"Hejian","value":6.0868,"population":440000,"latitude":38.4425,"longitude":116.0949,"slug":304},{"city":"Hengshui","value":6.7534,"population":857000,"latitude":37.7411,"longitude":115.6781,"slug":305},{"city":"Hengyang","value":7.3311,"population":1527000,"latitude":26.8841,"longitude":112.6251,"slug":306},{"city":"Heshan","value":5.9713,"population":392000,"latitude":22.7659,"longitude":112.959,"slug":307},{"city":"Heyuan","value":6.2615,"population":524000,"latitude":23.7509,"longitude":114.6992,"slug":308},{"city":"Heze","value":6.6783,"population":795000,"latitude":35.2451,"longitude":115.4598,"slug":309},{"city":"Hezhou","value":6.4378,"population":625000,"latitude":24.4152,"longitude":111.554,"slug":310},{"city":"Hohhot","value":7.6793,"population":2163000,"latitude":40.8106,"longitude":111.6522,"slug":311},{"city":"Huai'an","value":7.8842,"population":2655000,"latitude":33.607,"longitude":119.0148,"slug":312},{"city":"Huaibei","value":7.0405,"population":1142000,"latitude":33.9549,"longitude":116.7929,"slug":313},{"city":"Huaihua","value":6.6227,"population":752000,"latitude":27.5494,"longitude":109.9592,"slug":314},{"city":"Huainan","value":7.271,"population":1438000,"latitude":32.6264,"longitude":116.9969,"slug":315},{"city":"Huangshan","value":5.9865,"population":398000,"latitude":29.7127,"longitude":118.3225,"slug":316},{"city":"Huangshi","value":6.719,"population":828000,"latitude":30.2068,"longitude":115.0855,"slug":317},{"city":"Huazhou","value":5.8749,"population":356000,"latitude":21.6572,"longitude":110.6391,"slug":318},{"city":"Huixian","value":5.8833,"population":359000,"latitude":35.4672,"longitude":113.8013,"slug":319},{"city":"Huizhou","value":7.834,"population":2525000,"latitude":23.0833,"longitude":114.4,"slug":320},{"city":"Huludao","value":6.6529,"population":775000,"latitude":40.7524,"longitude":120.8355,"slug":321},{"city":"Huzhou","value":6.8957,"population":988000,"latitude":30.8703,"longitude":120.0933,"slug":322},{"city":"Jiamusi","value":6.5737,"population":716000,"latitude":46.7979,"longitude":130.3302,"slug":323},{"city":"Ji'an, Jiangxi","value":6.0753,"population":435000,"latitude":27.1177,"longitude":114.9804,"slug":324},{"city":"Jiangmen","value":7.4307,"population":1687000,"latitude":22.5833,"longitude":113.0833,"slug":325},{"city":"Jiangyin","value":6.737,"population":843000,"latitude":31.9157,"longitude":120.281,"slug":326},{"city":"Jianyang","value":6.1883,"population":487000,"latitude":30.3921,"longitude":104.5448,"slug":327},{"city":"Jiaozhou","value":6.3135,"population":552000,"latitude":36.2839,"longitude":120.0033,"slug":328},{"city":"Jiaozuo","value":6.6425,"population":767000,"latitude":35.2397,"longitude":113.2331,"slug":329},{"city":"Jiaxing","value":7.1389,"population":1260000,"latitude":30.7665,"longitude":120.7482,"slug":330},{"city":"Jiayuguan","value":5.8171,"population":336000,"latitude":39.808,"longitude":98.2761,"slug":331},{"city":"Jieyang","value":7.0449,"population":1147000,"latitude":23.5526,"longitude":116.3721,"slug":332},{"city":"Jilin","value":7.3796,"population":1603000,"latitude":43.8508,"longitude":126.5603,"slug":333},{"city":"Ji'nan, Shandong","value":8.5867,"population":5360000,"latitude":36.6767,"longitude":116.9971,"slug":334},{"city":"Jincheng","value":6.5985,"population":734000,"latitude":35.4865,"longitude":112.8515,"slug":335},{"city":"Jingdezhen","value":5.9814,"population":396000,"latitude":29.2947,"longitude":117.2079,"slug":336},{"city":"Jingjiang","value":6.3596,"population":578000,"latitude":32.012,"longitude":120.2627,"slug":337},{"city":"Jingmen","value":6.1924,"population":489000,"latitude":31.0417,"longitude":112.2003,"slug":338},{"city":"Jingzhou, Hubei","value":6.9451,"population":1038000,"latitude":30.3276,"longitude":112.2484,"slug":339},{"city":"Jinhua","value":7.0229,"population":1122000,"latitude":29.0807,"longitude":119.6464,"slug":340},{"city":"Jining, Shandong","value":7.3092,"population":1494000,"latitude":35.4146,"longitude":116.5847,"slug":341},{"city":"Jinjiang","value":6.2106,"population":498000,"latitude":24.8106,"longitude":118.5773,"slug":342},{"city":"Jinzhong","value":6.3969,"population":600000,"latitude":37.6882,"longitude":112.7349,"slug":343},{"city":"Jinzhou","value":7.0432,"population":1145000,"latitude":41.1078,"longitude":121.1417,"slug":344},{"city":"Jiujiang","value":6.8167,"population":913000,"latitude":29.7041,"longitude":116.0013,"slug":345},{"city":"Jiuquan","value":5.9454,"population":382000,"latitude":39.738,"longitude":98.5042,"slug":346},{"city":"Jixi, Heilongjiang","value":6.8565,"population":950000,"latitude":45.2958,"longitude":130.9701,"slug":347},{"city":"Jiyuan","value":6.0307,"population":416000,"latitude":35.0926,"longitude":112.5833,"slug":348},{"city":"Jurong","value":6.0753,"population":435000,"latitude":31.9498,"longitude":119.1609,"slug":349},{"city":"Kaifeng","value":7.1499,"population":1274000,"latitude":34.7911,"longitude":114.3483,"slug":350},{"city":"Kaili","value":5.8522,"population":348000,"latitude":26.5834,"longitude":107.9719,"slug":351},{"city":"Kaiping","value":5.9915,"population":400000,"latitude":22.3724,"longitude":112.7026,"slug":352},{"city":"Kelamayi","value":6.1247,"population":457000,"latitude":45.5941,"longitude":84.8729,"slug":353},{"city":"Kuerle","value":6.6346,"population":761000,"latitude":41.7646,"longitude":86.1472,"slug":354},{"city":"Kunming","value":8.3991,"population":4443000,"latitude":25.0389,"longitude":102.7183,"slug":355},{"city":"Kunshan ","value":6.6039,"population":738000,"latitude":31.3881,"longitude":120.9629,"slug":356},{"city":"Laibin","value":6.0014,"population":404000,"latitude":23.738,"longitude":109.2268,"slug":357},{"city":"Laiwu","value":6.8112,"population":908000,"latitude":36.2074,"longitude":117.672,"slug":358},{"city":"Laixi","value":6.2246,"population":505000,"latitude":36.8651,"longitude":120.5238,"slug":359},{"city":"Laiyang","value":5.9584,"population":387000,"latitude":36.9758,"longitude":120.7136,"slug":360},{"city":"Laizhou","value":5.9764,"population":394000,"latitude":37.1797,"longitude":119.943,"slug":361},{"city":"Langfang","value":6.6067,"population":740000,"latitude":39.5097,"longitude":116.6947,"slug":362},{"city":"Lanzhou","value":8.033,"population":3081000,"latitude":36.0564,"longitude":103.7922,"slug":363},{"city":"Leiyang","value":6.7464,"population":851000,"latitude":26.4169,"longitude":112.8503,"slug":364},{"city":"Lengshuijiang","value":5.8406,"population":344000,"latitude":27.6879,"longitude":111.4374,"slug":365},{"city":"Leping","value":5.8522,"population":348000,"latitude":28.972,"longitude":117.1283,"slug":366},{"city":"Leshan","value":6.8947,"population":987000,"latitude":29.5762,"longitude":103.759,"slug":367},{"city":"Lianyungang","value":7.5066,"population":1820000,"latitude":34.5969,"longitude":119.1758,"slug":368},{"city":"Liaocheng","value":6.6346,"population":761000,"latitude":36.4551,"longitude":115.9826,"slug":369},{"city":"Liaoyang","value":6.7523,"population":856000,"latitude":41.2719,"longitude":123.1731,"slug":370},{"city":"Liaoyuan","value":5.9269,"population":375000,"latitude":42.9036,"longitude":125.1358,"slug":371},{"city":"Liling","value":6.7007,"population":813000,"latitude":27.6667,"longitude":113.5,"slug":372},{"city":"Linfen","value":6.7546,"population":858000,"latitude":36.0889,"longitude":111.5189,"slug":373},{"city":"Linhai","value":6.5639,"population":709000,"latitude":28.8529,"longitude":121.1403,"slug":374},{"city":"Linqing","value":5.948,"population":383000,"latitude":36.8456,"longitude":115.7117,"slug":375},{"city":"Linyi, Shandong","value":7.5689,"population":1937000,"latitude":35.0541,"longitude":118.3334,"slug":376},{"city":"Linzhou","value":6.0113,"population":408000,"latitude":36.071,"longitude":113.8156,"slug":377},{"city":"Lishui, Zhejiang","value":6.045,"population":422000,"latitude":28.457,"longitude":119.9192,"slug":378},{"city":"Liuan","value":7.0867,"population":1196000,"latitude":31.7543,"longitude":116.4981,"slug":379},{"city":"Liupanshui","value":6.9819,"population":1077000,"latitude":26.5923,"longitude":104.8377,"slug":380},{"city":"Liuyang","value":7.0639,"population":1169000,"latitude":28.15,"longitude":113.6333,"slug":381},{"city":"Liuzhou","value":7.6802,"population":2165000,"latitude":24.3017,"longitude":109.3784,"slug":382},{"city":"Liyang","value":6.1181,"population":454000,"latitude":31.423,"longitude":119.4837,"slug":383},{"city":"Longchang","value":6.0014,"population":404000,"latitude":29.3394,"longitude":105.2876,"slug":384},{"city":"Longhai","value":6.4473,"population":631000,"latitude":24.4462,"longitude":117.809,"slug":385},{"city":"Longkou","value":6.2558,"population":521000,"latitude":37.6417,"longitude":120.5199,"slug":386},{"city":"Longyan","value":6.5396,"population":692000,"latitude":25.1072,"longitude":117.0225,"slug":387},{"city":"Loudi","value":6.4599,"population":639000,"latitude":27.7344,"longitude":111.9944,"slug":388},{"city":"Luoding","value":5.8999,"population":365000,"latitude":22.7708,"longitude":111.566,"slug":389},{"city":"Luohe","value":6.947,"population":1040000,"latitude":33.5731,"longitude":114.0241,"slug":390},{"city":"Luoyang","value":7.7778,"population":2387000,"latitude":34.6186,"longitude":112.4562,"slug":391},{"city":"Luzhou","value":6.713,"population":823000,"latitude":28.8775,"longitude":105.4408,"slug":392},{"city":"Lvliang","value":6.0913,"population":442000,"latitude":37.5195,"longitude":111.1318,"slug":393},{"city":"Ma'anshan","value":6.9266,"population":1019000,"latitude":31.7071,"longitude":118.5038,"slug":394},{"city":"Macheng","value":5.8636,"population":352000,"latitude":31.1783,"longitude":115.0319,"slug":395},{"city":"Manzhouli","value":5.8201,"population":337000,"latitude":49.5881,"longitude":117.4545,"slug":396},{"city":"Maoming","value":7.0942,"population":1205000,"latitude":21.6627,"longitude":110.9234,"slug":397},{"city":"Meishan","value":6.5834,"population":723000,"latitude":30.0761,"longitude":103.8456,"slug":398},{"city":"Meizhou","value":5.9865,"population":398000,"latitude":24.2989,"longitude":116.1214,"slug":399},{"city":"Mianyang, Sichuan","value":7.1515,"population":1276000,"latitude":31.4839,"longitude":104.737,"slug":400},{"city":"Miluo","value":6.4036,"population":604000,"latitude":28.8069,"longitude":113.0721,"slug":401},{"city":"Mudanjiang","value":6.8309,"population":926000,"latitude":44.5833,"longitude":129.6,"slug":402},{"city":"Nanchang","value":8.1881,"population":3598000,"latitude":28.6833,"longitude":115.8833,"slug":403},{"city":"Nanchong","value":7.1373,"population":1258000,"latitude":30.7951,"longitude":106.0847,"slug":404},{"city":"Nanjing, Jiangsu","value":9.0878,"population":8847000,"latitude":32.0482,"longitude":118.7898,"slug":405},{"city":"Nankang","value":6.0331,"population":417000,"latitude":25.6655,"longitude":114.7558,"slug":406},{"city":"Nanning","value":8.2584,"population":3860000,"latitude":22.8167,"longitude":108.3167,"slug":407},{"city":"Nanping","value":6.1964,"population":491000,"latitude":26.6433,"longitude":118.1741,"slug":408},{"city":"Nantong","value":7.7302,"population":2276000,"latitude":31.9904,"longitude":120.8655,"slug":409},{"city":"Nanyang, Henan","value":7.0414,"population":1143000,"latitude":32.9999,"longitude":112.5259,"slug":410},{"city":"Neijiang","value":6.4708,"population":646000,"latitude":29.5835,"longitude":105.0622,"slug":411},{"city":"Ningbo","value":8.3226,"population":4116000,"latitude":29.8782,"longitude":121.5495,"slug":412},{"city":"Ningde","value":5.8111,"population":334000,"latitude":26.6617,"longitude":119.5228,"slug":413},{"city":"Ningguo","value":5.8289,"population":340000,"latitude":30.6209,"longitude":118.9796,"slug":414},{"city":"Panjin","value":6.9594,"population":1053000,"latitude":41.1219,"longitude":122.0701,"slug":415},{"city":"Panzhihua","value":6.561,"population":707000,"latitude":26.5851,"longitude":101.7128,"slug":416},{"city":"Pingdingshan, Henan","value":7.0562,"population":1160000,"latitude":33.7417,"longitude":113.304,"slug":417},{"city":"Pingdu","value":6.2634,"population":525000,"latitude":36.7808,"longitude":119.9592,"slug":418},{"city":"Pinghu","value":6.089,"population":441000,"latitude":30.7037,"longitude":121.0097,"slug":419},{"city":"Pingliang","value":5.9402,"population":380000,"latitude":35.5392,"longitude":106.6861,"slug":420},{"city":"Pingxiang, Jiangxi","value":6.8341,"population":929000,"latitude":27.6348,"longitude":113.8477,"slug":421},{"city":"Pizhou","value":6.9689,"population":1063000,"latitude":34.3114,"longitude":117.9503,"slug":422},{"city":"Puning","value":7.0562,"population":1160000,"latitude":23.2967,"longitude":116.1647,"slug":423},{"city":"Putian","value":7.5533,"population":1907000,"latitude":25.4394,"longitude":119.0103,"slug":424},{"city":"Puyang","value":6.4489,"population":632000,"latitude":35.7705,"longitude":115.0438,"slug":425},{"city":"Qianjiang","value":6.2383,"population":512000,"latitude":30.4221,"longitude":112.8925,"slug":426},{"city":"Qidong","value":5.8944,"population":363000,"latitude":31.8134,"longitude":121.6577,"slug":427},{"city":"Qingdao","value":8.6341,"population":5620000,"latitude":36.0986,"longitude":120.3719,"slug":428},{"city":"Qingyuan","value":6.5999,"population":735000,"latitude":23.7146,"longitude":113.0297,"slug":429},{"city":"Qingzhou","value":6.2538,"population":520000,"latitude":36.6845,"longitude":118.4796,"slug":430},{"city":"Qinhuangdao","value":7.3363,"population":1535000,"latitude":39.9317,"longitude":119.5883,"slug":431},{"city":"Qinzhou","value":6.4677,"population":644000,"latitude":21.9681,"longitude":108.6214,"slug":432},{"city":"Qiqihaer","value":7.3524,"population":1560000,"latitude":47.3408,"longitude":123.9672,"slug":433},{"city":"Qitaihe","value":6.3613,"population":579000,"latitude":45.7671,"longitude":130.975,"slug":434},{"city":"Quanzhou","value":7.4348,"population":1694000,"latitude":24.8968,"longitude":118.5997,"slug":435},{"city":"Qufu","value":5.9026,"population":366000,"latitude":35.5967,"longitude":116.9911,"slug":436},{"city":"Qujing","value":6.848,"population":942000,"latitude":25.4894,"longitude":103.7977,"slug":437},{"city":"Quzhou","value":6.6307,"population":758000,"latitude":28.9594,"longitude":118.8686,"slug":438},{"city":"Renqiu","value":6.4615,"population":640000,"latitude":38.6989,"longitude":116.0936,"slug":439},{"city":"Rizhao","value":7.1476,"population":1271000,"latitude":35.4034,"longitude":119.512,"slug":440},{"city":"Rongcheng","value":6.0113,"population":408000,"latitude":37.154,"longitude":122.4363,"slug":441},{"city":"Rugao","value":5.7589,"population":317000,"latitude":32.3977,"longitude":120.5604,"slug":442},{"city":"Ruian","value":7.0639,"population":1169000,"latitude":27.7808,"longitude":120.6755,"slug":443},{"city":"Rushan","value":5.7714,"population":321000,"latitude":36.9158,"longitude":121.5267,"slug":444},{"city":"Sanhe","value":6.3561,"population":576000,"latitude":39.9819,"longitude":117.0713,"slug":445},{"city":"Sanmenxia","value":6.3297,"population":561000,"latitude":34.7715,"longitude":111.2038,"slug":446},{"city":"Sanming","value":5.9189,"population":372000,"latitude":26.2641,"longitude":117.6191,"slug":447},{"city":"Sanya","value":6.4378,"population":625000,"latitude":18.2676,"longitude":109.5034,"slug":448},{"city":"Shanghai","value":10.2057,"population":27058000,"latitude":31.2222,"longitude":121.4581,"slug":449},{"city":"Shangqiu","value":6.7178,"population":827000,"latitude":34.4244,"longitude":115.6514,"slug":450},{"city":"Shangrao","value":6.9363,"population":1029000,"latitude":28.4604,"longitude":117.9531,"slug":451},{"city":"Shangyu","value":6.2364,"population":511000,"latitude":30.0311,"longitude":120.8722,"slug":452},{"city":"Shantou","value":8.3726,"population":4327000,"latitude":23.3681,"longitude":116.7148,"slug":453},{"city":"Shanwei","value":6.0638,"population":430000,"latitude":22.7787,"longitude":115.3568,"slug":454},{"city":"Shaoguan","value":6.6346,"population":761000,"latitude":24.8,"longitude":113.5833,"slug":455},{"city":"Shaoxing","value":7.8399,"population":2540000,"latitude":30.011,"longitude":120.5715,"slug":456},{"city":"Shaoyang","value":6.5709,"population":714000,"latitude":27.2403,"longitude":111.4709,"slug":457},{"city":"Shengzhou","value":5.994,"population":401000,"latitude":29.593,"longitude":120.8214,"slug":458},{"city":"Shenmu","value":5.8551,"population":349000,"latitude":38.8341,"longitude":110.4847,"slug":459},{"city":"Shenyang","value":8.8846,"population":7220000,"latitude":41.7922,"longitude":123.4328,"slug":460},{"city":"Shenzhen","value":9.422,"population":12357000,"latitude":22.5415,"longitude":114.0634,"slug":461},{"city":"Shihezi","value":5.7991,"population":330000,"latitude":44.3075,"longitude":86.032,"slug":462},{"city":"Shijiazhuang","value":8.3222,"population":4114000,"latitude":38.0418,"longitude":114.5108,"slug":463},{"city":"Shishi","value":6.3716,"population":585000,"latitude":24.7367,"longitude":118.634,"slug":464},{"city":"Shiyan","value":7.1237,"population":1241000,"latitude":32.6445,"longitude":110.7836,"slug":465},{"city":"Shizuishan","value":6.2422,"population":514000,"latitude":39.2333,"longitude":106.7694,"slug":466},{"city":"Shouguang","value":6.2989,"population":544000,"latitude":36.8788,"longitude":118.7482,"slug":467},{"city":"Shuangyashan","value":6.2206,"population":503000,"latitude":46.6361,"longitude":131.1539,"slug":468},{"city":"Shuozhou","value":6.3333,"population":563000,"latitude":39.3158,"longitude":112.4225,"slug":469},{"city":"Sihui","value":6.3818,"population":591000,"latitude":23.3462,"longitude":112.6958,"slug":470},{"city":"Siping","value":6.3869,"population":594000,"latitude":43.1633,"longitude":124.3686,"slug":471},{"city":"Songyuan","value":6.2403,"population":513000,"latitude":27.6217,"longitude":119.0592,"slug":472},{"city":"Songzi","value":5.8051,"population":332000,"latitude":30.1736,"longitude":111.7761,"slug":473},{"city":"Suihua","value":6.045,"population":422000,"latitude":46.6366,"longitude":126.983,"slug":474},{"city":"Suining, Sichuan","value":6.5511,"population":700000,"latitude":30.5236,"longitude":105.5639,"slug":475},{"city":"Suizhou","value":6.0981,"population":445000,"latitude":31.7111,"longitude":113.3631,"slug":476},{"city":"Suqian","value":7.2724,"population":1440000,"latitude":33.9681,"longitude":118.2924,"slug":477},{"city":"Suzhou, Anhui","value":7.0648,"population":1170000,"latitude":33.6359,"longitude":116.9747,"slug":478},{"city":"Suzhou, Jiangsu","value":8.8636,"population":7070000,"latitude":31.3021,"longitude":120.5853,"slug":479},{"city":"Taian, Shandong","value":7.1997,"population":1339000,"latitude":36.1904,"longitude":117.1191,"slug":480},{"city":"Taicang","value":6.4831,"population":654000,"latitude":31.4549,"longitude":121.1172,"slug":481},{"city":"Taishan","value":6.2634,"population":525000,"latitude":22.2504,"longitude":112.7943,"slug":482},{"city":"Taixing","value":6.6174,"population":748000,"latitude":32.1667,"longitude":120.0136,"slug":483},{"city":"Taiyuan, Shanxi","value":8.2664,"population":3891000,"latitude":37.8619,"longitude":112.5516,"slug":484},{"city":"Taizhou, Jiangsu","value":7.2064,"population":1348000,"latitude":32.4945,"longitude":119.9029,"slug":485},{"city":"Taizhou, Zhejiang","value":7.5679,"population":1935000,"latitude":28.6372,"longitude":121.4185,"slug":486},{"city":"Tangshan, Hebei","value":8.1391,"population":3426000,"latitude":39.6285,"longitude":118.1799,"slug":487},{"city":"Tengzhou","value":7.0817,"population":1190000,"latitude":35.0845,"longitude":117.1624,"slug":488},{"city":"Tianjin","value":9.517,"population":13589000,"latitude":39.1088,"longitude":117.1886,"slug":489},{"city":"Tianmen","value":6.7685,"population":870000,"latitude":30.6534,"longitude":113.1605,"slug":490},{"city":"Tianshui","value":6.6399,"population":765000,"latitude":34.5809,"longitude":105.7237,"slug":491},{"city":"Tieling","value":6.021,"population":412000,"latitude":42.2931,"longitude":123.8414,"slug":492},{"city":"Tongcheng","value":6.0355,"population":418000,"latitude":31.0538,"longitude":116.9556,"slug":493},{"city":"Tongchuan","value":6.3044,"population":547000,"latitude":34.8988,"longitude":108.9506,"slug":494},{"city":"Tonghua","value":6.3509,"population":573000,"latitude":41.7201,"longitude":125.9281,"slug":495},{"city":"Tongliao","value":6.5539,"population":702000,"latitude":43.6125,"longitude":122.2653,"slug":496},{"city":"Tongling","value":6.5468,"population":697000,"latitude":30.9363,"longitude":117.8109,"slug":497},{"city":"Tongxiang","value":6.4457,"population":630000,"latitude":30.6296,"longitude":120.5536,"slug":498},{"city":"<dc>r<fc>mqi (Wulumqi)","value":8.3823,"population":4369000,"latitude":43.8253,"longitude":87.6038,"slug":499},{"city":"Wafangdian ","value":6.1312,"population":460000,"latitude":39.6267,"longitude":121.9949,"slug":500},{"city":"Wanning","value":5.8944,"population":363000,"latitude":18.7955,"longitude":110.3826,"slug":501},{"city":"Weifang","value":7.8838,"population":2654000,"latitude":36.71,"longitude":119.1019,"slug":502},{"city":"Weihai","value":7.1732,"population":1304000,"latitude":37.5017,"longitude":122.1136,"slug":503},{"city":"Weinan","value":6.3154,"population":553000,"latitude":34.5036,"longitude":109.5089,"slug":504},{"city":"Wenchang","value":5.8749,"population":356000,"latitude":19.614,"longitude":110.7505,"slug":505},{"city":"Wenling","value":6.9441,"population":1037000,"latitude":28.3758,"longitude":121.3781,"slug":506},{"city":"Wenzhou","value":8.1953,"population":3624000,"latitude":27.9994,"longitude":120.6668,"slug":507},{"city":"Wuchuan ","value":5.8551,"population":349000,"latitude":21.431,"longitude":110.7762,"slug":508},{"city":"Wuhai","value":6.4457,"population":630000,"latitude":39.6647,"longitude":106.8122,"slug":509},{"city":"Wuhan","value":9.0318,"population":8365000,"latitude":30.5833,"longitude":114.2667,"slug":510},{"city":"Wuhu, Anhui","value":7.5337,"population":1870000,"latitude":31.3336,"longitude":118.3812,"slug":511},{"city":"Wulanhaote","value":5.8141,"population":335000,"latitude":46.0748,"longitude":122.0679,"slug":512},{"city":"Wuwei","value":5.9915,"population":400000,"latitude":37.9251,"longitude":102.6337,"slug":513},{"city":"Wuxi, Jiangsu","value":8.0883,"population":3256000,"latitude":31.5367,"longitude":120.2986,"slug":514},{"city":"Wuzhou","value":6.5468,"population":697000,"latitude":23.4832,"longitude":111.2741,"slug":515},{"city":"Xiamen","value":8.2215,"population":3720000,"latitude":24.4798,"longitude":118.0819,"slug":516},{"city":"Xi'an, Shaanxi","value":8.9873,"population":8001000,"latitude":34.2894,"longitude":108.9402,"slug":517},{"city":"Xiangtan, Hunan","value":7.0414,"population":1143000,"latitude":27.8283,"longitude":112.927,"slug":518},{"city":"Xiangyang","value":7.4134,"population":1658000,"latitude":32.0088,"longitude":112.144,"slug":519},{"city":"Xianning","value":5.8579,"population":350000,"latitude":29.8356,"longitude":114.3303,"slug":520},{"city":"Xiantao","value":6.3784,"population":589000,"latitude":30.3718,"longitude":113.4484,"slug":521},{"city":"Xianyang, Shaanxi","value":6.5723,"population":715000,"latitude":34.3386,"longitude":108.7015,"slug":522},{"city":"Xiaogan","value":6.6631,"population":783000,"latitude":30.9256,"longitude":113.9175,"slug":523},{"city":"Xinghua","value":6.6733,"population":791000,"latitude":32.9373,"longitude":119.8387,"slug":524},{"city":"Xingning","value":6.1903,"population":488000,"latitude":24.1455,"longitude":115.7253,"slug":525},{"city":"Xingping","value":5.9661,"population":390000,"latitude":34.3011,"longitude":108.4877,"slug":526},{"city":"Xingtai","value":6.7226,"population":831000,"latitude":37.0631,"longitude":114.4942,"slug":527},{"city":"Xingyang","value":5.9839,"population":397000,"latitude":34.7916,"longitude":113.3834,"slug":528},{"city":"Xingyi, Guizhou","value":5.9135,"population":370000,"latitude":25.0945,"longitude":104.8983,"slug":529},{"city":"Xining","value":7.3389,"population":1539000,"latitude":36.6167,"longitude":101.7667,"slug":530},{"city":"Xinmi","value":6.3561,"population":576000,"latitude":34.5355,"longitude":113.389,"slug":531},{"city":"Xintai","value":6.8416,"population":936000,"latitude":35.9006,"longitude":117.7519,"slug":532},{"city":"Xinxiang","value":6.9856,"population":1081000,"latitude":35.2989,"longitude":113.9015,"slug":533},{"city":"Xinyang","value":6.6809,"population":797000,"latitude":32.1289,"longitude":114.0746,"slug":534},{"city":"Xinyi","value":6.3279,"population":560000,"latitude":34.3668,"longitude":118.343,"slug":535},{"city":"Xinyi","value":5.994,"population":401000,"latitude":22.3585,"longitude":110.9388,"slug":536},{"city":"Xinyu","value":6.7546,"population":858000,"latitude":27.8043,"longitude":114.9334,"slug":537},{"city":"Xinzheng","value":6.0958,"population":444000,"latitude":34.3985,"longitude":113.7368,"slug":538},{"city":"Xinzhou","value":5.9243,"population":374000,"latitude":38.4173,"longitude":112.7331,"slug":539},{"city":"Xiongan","value":6.8773,"population":970000,"latitude":38.9796,"longitude":116.079,"slug":540},{"city":"Xuancheng","value":6.1463,"population":467000,"latitude":30.949,"longitude":118.7524,"slug":541},{"city":"Xuanwei","value":5.8201,"population":337000,"latitude":26.229,"longitude":104.1018,"slug":542},{"city":"Xuchang","value":6.8752,"population":968000,"latitude":34.0167,"longitude":113.8167,"slug":543},{"city":"Xuzhou","value":7.6714,"population":2146000,"latitude":34.2637,"longitude":117.1866,"slug":544},{"city":"Yaan","value":5.8889,"population":361000,"latitude":29.9874,"longitude":102.9945,"slug":545},{"city":"Yan'an","value":6.5206,"population":679000,"latitude":36.5967,"longitude":109.4838,"slug":546},{"city":"Yancheng, Jiangsu","value":7.5305,"population":1864000,"latitude":33.3569,"longitude":120.1551,"slug":547},{"city":"Yangchun","value":5.7203,"population":305000,"latitude":22.1704,"longitude":111.7892,"slug":548},{"city":"Yangjiang","value":6.7912,"population":890000,"latitude":21.8614,"longitude":111.9563,"slug":549},{"city":"Yangquan","value":6.6771,"population":794000,"latitude":37.8558,"longitude":113.5826,"slug":550},{"city":"Yangzhou","value":7.5974,"population":1993000,"latitude":32.3915,"longitude":119.4238,"slug":551},{"city":"Yanji","value":6.5439,"population":695000,"latitude":42.9075,"longitude":129.5078,"slug":552},{"city":"Yanshi","value":6.2305,"population":508000,"latitude":34.7293,"longitude":112.7799,"slug":553},{"city":"Yantai","value":7.8348,"population":2527000,"latitude":37.4651,"longitude":121.4372,"slug":554},{"city":"Yibin","value":6.702,"population":814000,"latitude":28.7667,"longitude":104.6238,"slug":555},{"city":"Yichang","value":7.3447,"population":1548000,"latitude":30.7144,"longitude":111.2847,"slug":556},{"city":"Yichun, Heilongjiang","value":6.3936,"population":598000,"latitude":47.7245,"longitude":128.8337,"slug":557},{"city":"Yichun, Jiangxi","value":6.8222,"population":918000,"latitude":27.8062,"longitude":114.3892,"slug":558},{"city":"Yinchuan","value":7.3645,"population":1579000,"latitude":38.4681,"longitude":106.2731,"slug":559},{"city":"Yingde","value":6.0661,"population":431000,"latitude":24.1974,"longitude":113.4055,"slug":560},{"city":"Yingkou","value":7.1017,"population":1214000,"latitude":40.6648,"longitude":122.2283,"slug":561},{"city":"Yining","value":5.8749,"population":356000,"latitude":43.9196,"longitude":81.3161,"slug":562},{"city":"Yiwu","value":7.1959,"population":1334000,"latitude":29.3151,"longitude":120.0768,"slug":563},{"city":"Yixing","value":6.0684,"population":432000,"latitude":31.3599,"longitude":119.7763,"slug":564},{"city":"Yiyang, Hunan","value":6.3261,"population":559000,"latitude":28.5666,"longitude":112.3487,"slug":565},{"city":"Yongcheng","value":6.1612,"population":474000,"latitude":33.9318,"longitude":116.4434,"slug":566},{"city":"Yongkang","value":6.2653,"population":526000,"latitude":28.9033,"longitude":120.0328,"slug":567},{"city":"Yongzhou","value":6.6619,"population":782000,"latitude":26.4351,"longitude":111.6063,"slug":568},{"city":"Yuanjiang","value":5.8406,"population":344000,"latitude":28.843,"longitude":112.3642,"slug":569},{"city":"Yueqing","value":6.967,"population":1061000,"latitude":28.1194,"longitude":120.9612,"slug":570},{"city":"Yueyang","value":6.9177,"population":1010000,"latitude":29.3722,"longitude":113.1153,"slug":571},{"city":"Yuhuan","value":6.1312,"population":460000,"latitude":28.1359,"longitude":121.2318,"slug":572},{"city":"Yulin, Guangxi","value":6.42,"population":614000,"latitude":22.6339,"longitude":110.1533,"slug":573},{"city":"Yulin, Shaanxi","value":6.5453,"population":696000,"latitude":38.2838,"longitude":109.7315,"slug":574},{"city":"Yuncheng","value":6.5147,"population":675000,"latitude":35.0231,"longitude":110.9928,"slug":575},{"city":"Yunfu","value":5.8861,"population":360000,"latitude":22.9306,"longitude":112.0373,"slug":576},{"city":"Yushu","value":5.8749,"population":356000,"latitude":44.8243,"longitude":126.551,"slug":577},{"city":"Yuxi","value":6.4968,"population":663000,"latitude":24.3567,"longitude":102.5395,"slug":578},{"city":"Yuyao","value":6.5206,"population":679000,"latitude":30.0426,"longitude":121.1531,"slug":579},{"city":"Zaoyang","value":6.3315,"population":562000,"latitude":32.1272,"longitude":112.7542,"slug":580},{"city":"Zaozhuang","value":6.9921,"population":1088000,"latitude":34.8647,"longitude":117.5542,"slug":581},{"city":"Zhangjiagang","value":6.4862,"population":656000,"latitude":31.865,"longitude":120.5389,"slug":582},{"city":"Zhangjiakou","value":7.2689,"population":1435000,"latitude":40.81,"longitude":114.8794,"slug":583},{"city":"Zhangshu","value":5.793,"population":328000,"latitude":28.066,"longitude":115.5473,"slug":584},{"city":"Zhangye","value":6.0936,"population":443000,"latitude":38.9342,"longitude":100.4517,"slug":585},{"city":"Zhangzhou","value":6.7708,"population":872000,"latitude":24.5133,"longitude":117.6556,"slug":586},{"city":"Zhanjiang","value":7.1601,"population":1287000,"latitude":21.2662,"longitude":110.3596,"slug":587},{"city":"Zhaodong","value":6.3099,"population":550000,"latitude":46.0668,"longitude":125.9896,"slug":588},{"city":"Zhaoqing","value":6.9315,"population":1024000,"latitude":23.0512,"longitude":112.4597,"slug":589},{"city":"Zhaotong","value":5.826,"population":339000,"latitude":27.3363,"longitude":103.7189,"slug":590},{"city":"Zhaoyuan","value":5.8522,"population":348000,"latitude":37.3592,"longitude":120.3964,"slug":591},{"city":"Zhengzhou","value":8.5798,"population":5323000,"latitude":34.7578,"longitude":113.6486,"slug":592},{"city":"Zhenjiang, Jiangsu","value":7.0682,"population":1174000,"latitude":32.2027,"longitude":119.4489,"slug":593},{"city":"Zhongshan","value":7.9773,"population":2914000,"latitude":22.518,"longitude":113.3839,"slug":594},{"city":"Zhongxiang","value":6.1985,"population":492000,"latitude":31.1661,"longitude":112.5831,"slug":595},{"city":"Zhoukou","value":6.477,"population":650000,"latitude":33.6174,"longitude":114.6461,"slug":596},{"city":"Zhoushan","value":6.4723,"population":647000,"latitude":29.9885,"longitude":122.2135,"slug":597},{"city":"Zhuanghe","value":6.1442,"population":466000,"latitude":39.7051,"longitude":122.9688,"slug":598},{"city":"Zhucheng","value":6.7923,"population":891000,"latitude":35.9947,"longitude":119.3975,"slug":599},{"city":"Zhuhai","value":7.4725,"population":1759000,"latitude":22.2769,"longitude":113.5678,"slug":600},{"city":"Zhuji","value":6.6567,"population":778000,"latitude":29.7132,"longitude":120.2368,"slug":601},{"city":"Zhumadian","value":6.5737,"population":716000,"latitude":32.9794,"longitude":114.0294,"slug":602},{"city":"Zhuozhou","value":5.8721,"population":355000,"latitude":39.4846,"longitude":115.9783,"slug":603},{"city":"Zhuzhou","value":7.0792,"population":1187000,"latitude":27.8333,"longitude":113.15,"slug":604},{"city":"Zibo","value":7.8785,"population":2640000,"latitude":36.7906,"longitude":118.0633,"slug":605},{"city":"Zigong","value":6.6026,"population":737000,"latitude":29.3416,"longitude":104.7769,"slug":606},{"city":"Zixing","value":5.7991,"population":330000,"latitude":25.9762,"longitude":113.2319,"slug":607},{"city":"Ziyang","value":6.2146,"population":500000,"latitude":30.1256,"longitude":104.6305,"slug":608},{"city":"Zunyi","value":7.1554,"population":1281000,"latitude":27.7113,"longitude":106.9365,"slug":609},{"city":"Hong Kong","value":8.929,"population":7548000,"latitude":22.2796,"longitude":114.1887,"slug":610},{"city":"Macao","value":6.48,"population":652000,"latitude":22.2006,"longitude":113.5461,"slug":611},{"city":"Gaoxiong","value":7.3382,"population":1538000,"latitude":22.626,"longitude":120.3155,"slug":612},{"city":"Jilong","value":5.9108,"population":369000,"latitude":25.1309,"longitude":121.7361,"slug":613},{"city":"Taipei","value":7.9088,"population":2721000,"latitude":25.047,"longitude":121.5457,"slug":614},{"city":"Tainan","value":6.7452,"population":850000,"latitude":23.1316,"longitude":120.259,"slug":615},{"city":"Taizhong","value":7.1861,"population":1321000,"latitude":24.1416,"longitude":120.6727,"slug":616},{"city":"Taoyuan","value":7.7165,"population":2245000,"latitude":24.9936,"longitude":121.2969,"slug":617},{"city":"Xinbei","value":8.3889,"population":4398000,"latitude":25.0121,"longitude":121.4621,"slug":618},{"city":"Xinzhu","value":6.1115,"population":451000,"latitude":24.8036,"longitude":120.9686,"slug":619},{"city":"Armenia","value":6.0162,"population":410000,"latitude":4.5339,"longitude":-75.6811,"slug":620},{"city":"Barranquilla","value":7.7289,"population":2273000,"latitude":10.9639,"longitude":-74.7964,"slug":621},{"city":"Bogot<e1>","value":9.3036,"population":10978000,"latitude":4.6097,"longitude":-74.0818,"slug":622},{"city":"Bucaramanga","value":7.1937,"population":1331000,"latitude":7.1254,"longitude":-73.1198,"slug":623},{"city":"Buenaventura","value":6.1115,"population":451000,"latitude":3.885,"longitude":-77.07,"slug":624},{"city":"Cali","value":7.9309,"population":2782000,"latitude":3.4372,"longitude":-76.5225,"slug":625},{"city":"Cartagena","value":6.9689,"population":1063000,"latitude":10.3997,"longitude":-75.5144,"slug":626},{"city":"C<fa>cuta","value":6.8384,"population":933000,"latitude":7.8939,"longitude":-72.5078,"slug":627},{"city":"Ibagu<e9>","value":6.3733,"population":586000,"latitude":4.4389,"longitude":-75.2322,"slug":628},{"city":"Manizales","value":6.1048,"population":448000,"latitude":5.0689,"longitude":-75.5174,"slug":629},{"city":"Medell<ed>n","value":8.294,"population":4000000,"latitude":6.2518,"longitude":-75.5636,"slug":630},{"city":"Monteria","value":6.0544,"population":426000,"latitude":8.748,"longitude":-75.8814,"slug":631},{"city":"Neiva","value":5.8777,"population":357000,"latitude":2.9273,"longitude":-75.2819,"slug":632},{"city":"Pasto","value":5.961,"population":388000,"latitude":1.2136,"longitude":-77.2811,"slug":633},{"city":"Pereira","value":6.363,"population":580000,"latitude":4.8133,"longitude":-75.6961,"slug":634},{"city":"Santa Marta","value":6.2672,"population":527000,"latitude":11.2408,"longitude":-74.199,"slug":635},{"city":"Valledupar","value":6.2785,"population":533000,"latitude":10.4631,"longitude":-73.2532,"slug":636},{"city":"Villavicencio","value":6.2989,"population":544000,"latitude":4.142,"longitude":-73.6266,"slug":637},{"city":"Brazzaville","value":7.7782,"population":2388000,"latitude":-4.2658,"longitude":15.2832,"slug":638},{"city":"Pointe-Noire","value":7.1017,"population":1214000,"latitude":-4.7761,"longitude":11.8635,"slug":639},{"city":"Alajuela","value":5.9026,"population":366000,"latitude":10.0167,"longitude":-84.2167,"slug":640},{"city":"Heredia","value":5.8319,"population":341000,"latitude":10,"longitude":-84.1167,"slug":641},{"city":"San Jos<e9>","value":7.2442,"population":1400000,"latitude":9.9278,"longitude":-84.0807,"slug":642},{"city":"Abidjan","value":8.557,"population":5203000,"latitude":5.3453,"longitude":-4.0268,"slug":643},{"city":"Bouake","value":6.3491,"population":572000,"latitude":7.6939,"longitude":-5.0303,"slug":644},{"city":"Zagreb","value":6.5294,"population":685000,"latitude":45.8144,"longitude":15.978,"slug":645},{"city":"Camaguey","value":5.7366,"population":310000,"latitude":21.3808,"longitude":-77.9169,"slug":646},{"city":"La Habana (Havana)","value":7.6686,"population":2140000,"latitude":23.1195,"longitude":-82.3785,"slug":647},{"city":"Santiago de Cuba","value":6.0822,"population":438000,"latitude":20.0247,"longitude":-75.8219,"slug":648},{"city":"Brno","value":5.9349,"population":378000,"latitude":49.1952,"longitude":16.608,"slug":649},{"city":"Praha (Prague)","value":7.1747,"population":1306000,"latitude":50.088,"longitude":14.4208,"slug":650},{"city":"Chongjin","value":6.4646,"population":642000,"latitude":41.7956,"longitude":129.7758,"slug":651},{"city":"Hamhung","value":6.3081,"population":549000,"latitude":39.9183,"longitude":127.5364,"slug":652},{"city":"P'yongyang","value":8.034,"population":3084000,"latitude":39.0339,"longitude":125.7543,"slug":653},{"city":"Sinuiju","value":5.7869,"population":326000,"latitude":40.1006,"longitude":124.3981,"slug":654},{"city":"Wonsan","value":5.8665,"population":353000,"latitude":39.1528,"longitude":127.4436,"slug":655},{"city":"Bukavu","value":6.9829,"population":1078000,"latitude":-2.5083,"longitude":28.8608,"slug":656},{"city":"Bunia","value":6.5206,"population":679000,"latitude":1.5667,"longitude":30.25,"slug":657},{"city":"Goma","value":6.452,"population":634000,"latitude":-1.6792,"longitude":29.2228,"slug":658},{"city":"Kabinda","value":6.1442,"population":466000,"latitude":-6.1379,"longitude":24.4818,"slug":659},{"city":"Kananga","value":7.2848,"population":1458000,"latitude":-5.8962,"longitude":22.4166,"slug":660},{"city":"Kikwit","value":6.2285,"population":507000,"latitude":-5.041,"longitude":18.8162,"slug":661},{"city":"Kinshasa","value":9.5709,"population":14342000,"latitude":-4.3276,"longitude":15.3136,"slug":662},{"city":"Kisangani","value":7.1397,"population":1261000,"latitude":0.5167,"longitude":25.2,"slug":663},{"city":"Kolwezi","value":6.2046,"population":495000,"latitude":-10.7148,"longitude":25.4667,"slug":664},{"city":"Likasi","value":6.3421,"population":568000,"latitude":-10.9814,"longitude":26.7333,"slug":665},{"city":"Lubumbashi","value":7.8152,"population":2478000,"latitude":-11.6609,"longitude":27.4794,"slug":666},{"city":"Matadi","value":5.9661,"population":390000,"latitude":-5.8177,"longitude":13.4717,"slug":667},{"city":"Mbandaka","value":6.0936,"population":443000,"latitude":0.0487,"longitude":18.2603,"slug":668},{"city":"Mbuji-Mayi","value":7.834,"population":2525000,"latitude":-6.15,"longitude":23.6,"slug":669},{"city":"Tshikapa","value":6.8233,"population":919000,"latitude":-6.4162,"longitude":20.8,"slug":670},{"city":"Uvira","value":6.3801,"population":590000,"latitude":-3.3953,"longitude":29.1378,"slug":671},{"city":"K<f8>benhavn (Copenhagen)","value":7.2049,"population":1346000,"latitude":55.6759,"longitude":12.5655,"slug":672},{"city":"Djibouti","value":6.3561,"population":576000,"latitude":11.5877,"longitude":43.1447,"slug":673},{"city":"Santiago","value":6.4998,"population":665000,"latitude":19.4602,"longitude":-70.6997,"slug":674},{"city":"Santo Domingo","value":8.1071,"population":3318000,"latitude":18.4896,"longitude":-69.9018,"slug":675},{"city":"Cuenca","value":6.0355,"population":418000,"latitude":-2.8833,"longitude":-78.9833,"slug":676},{"city":"Guayaquil","value":8.0044,"population":2994000,"latitude":-2.1667,"longitude":-79.9,"slug":677},{"city":"Quito","value":7.5358,"population":1874000,"latitude":-0.2299,"longitude":-78.525,"slug":678},{"city":"Santo Domingo","value":5.8721,"population":355000,"latitude":-0.2534,"longitude":-79.1696,"slug":679},{"city":"Al-Fayyum","value":6.0162,"population":410000,"latitude":29.31,"longitude":30.8418,"slug":680},{"city":"Al-Iskandariyah (Alexandria)","value":8.5719,"population":5281000,"latitude":31.1925,"longitude":29.9046,"slug":681},{"city":"Al-Ismailiyah","value":5.8693,"population":354000,"latitude":30.6043,"longitude":32.2723,"slug":682},{"city":"Al-Mahallah al-Kubra","value":6.25,"population":518000,"latitude":30.9745,"longitude":31.165,"slug":683},{"city":"Al-Mansurah","value":6.3208,"population":556000,"latitude":31.0364,"longitude":31.3807,"slug":684},{"city":"Al-Qahirah (Cairo)","value":9.9476,"population":20901000,"latitude":30.0392,"longitude":31.2394,"slug":685},{"city":"As-Suways","value":6.4583,"population":638000,"latitude":29.9681,"longitude":32.5475,"slug":686},{"city":"Aswan","value":5.8435,"population":345000,"latitude":24.0934,"longitude":32.907,"slug":687},{"city":"Asyut","value":6.1334,"population":461000,"latitude":27.181,"longitude":31.1837,"slug":688},{"city":"Az-Zaqazig","value":5.8805,"population":358000,"latitude":30.5875,"longitude":31.5019,"slug":689},{"city":"Bur Sa'id","value":6.6026,"population":737000,"latitude":31.2565,"longitude":32.2841,"slug":690},{"city":"Kafr-ad-Dawwar","value":5.8406,"population":344000,"latitude":31.1339,"longitude":30.1284,"slug":691},{"city":"Tanta","value":6.2166,"population":501000,"latitude":30.7872,"longitude":30.9995,"slug":692},{"city":"San Salvador","value":7.0085,"population":1106000,"latitude":13.6894,"longitude":-89.1872,"slug":693},{"city":"Bata","value":6.0283,"population":415000,"latitude":1.8639,"longitude":9.7658,"slug":694},{"city":"Asmara","value":6.8701,"population":963000,"latitude":15.3333,"longitude":38.9333,"slug":695},{"city":"Tallinn","value":6.0981,"population":445000,"latitude":59.437,"longitude":24.7535,"slug":696},{"city":"Addis Ababa","value":8.4751,"population":4794000,"latitude":9.025,"longitude":38.7469,"slug":697},{"city":"Dire Dawa","value":6.0113,"population":408000,"latitude":9.5931,"longitude":41.8661,"slug":698},{"city":"Gondar","value":5.8916,"population":362000,"latitude":12.6,"longitude":37.4667,"slug":699},{"city":"Mekele","value":6.2615,"population":524000,"latitude":13.4967,"longitude":39.4753,"slug":700},{"city":"Nazret","value":5.9349,"population":378000,"latitude":8.5409,"longitude":39.2716,"slug":701},{"city":"Helsinki","value":7.174,"population":1305000,"latitude":60.1692,"longitude":24.9402,"slug":702},{"city":"Tampere","value":5.8348,"population":342000,"latitude":61.4991,"longitude":23.7871,"slug":703},{"city":"Avignon","value":6.1527,"population":470000,"latitude":43.9483,"longitude":4.8089,"slug":704},{"city":"B<e9>thune","value":5.8805,"population":358000,"latitude":50.5333,"longitude":2.6333,"slug":705},{"city":"Bordeaux","value":6.8763,"population":969000,"latitude":44.8404,"longitude":-0.5805,"slug":706},{"city":"Douai-Lens","value":6.2166,"population":501000,"latitude":50.3682,"longitude":3.0795,"slug":707},{"city":"Grenoble","value":6.2691,"population":528000,"latitude":45.1667,"longitude":5.7167,"slug":708},{"city":"Lille","value":6.9689,"population":1063000,"latitude":50.633,"longitude":3.0586,"slug":709},{"city":"Lyon","value":7.4495,"population":1719000,"latitude":45.7485,"longitude":4.8467,"slug":710},{"city":"Marseille-Aix-en-Provence","value":7.3827,"population":1608000,"latitude":43.5284,"longitude":5.4433,"slug":711},{"city":"Montpellier","value":6.1356,"population":462000,"latitude":43.6109,"longitude":3.8772,"slug":712},{"city":"Nantes","value":6.5191,"population":678000,"latitude":47.2173,"longitude":-1.5534,"slug":713},{"city":"Nice-Cannes","value":6.848,"population":942000,"latitude":43.6646,"longitude":7.1534,"slug":714},{"city":"Paris","value":9.3072,"population":11017000,"latitude":48.8534,"longitude":2.3488,"slug":715},{"city":"Rennes","value":5.8693,"population":354000,"latitude":48.112,"longitude":-1.6743,"slug":716},{"city":"Rouen","value":6.1527,"population":470000,"latitude":49.4431,"longitude":1.0993,"slug":717},{"city":"Saint-<c9>tienne","value":5.9269,"population":375000,"latitude":45.4333,"longitude":4.4,"slug":718},{"city":"Strasbourg","value":6.1633,"population":475000,"latitude":48.5834,"longitude":7.743,"slug":719},{"city":"Toulon","value":6.3613,"population":579000,"latitude":43.124,"longitude":5.9332,"slug":720},{"city":"Toulouse","value":6.9315,"population":1024000,"latitude":43.6043,"longitude":1.4437,"slug":721},{"city":"Tours","value":5.8861,"population":360000,"latitude":47.3833,"longitude":0.6833,"slug":722},{"city":"Valenciennes","value":5.823,"population":338000,"latitude":50.35,"longitude":3.5333,"slug":723},{"city":"Libreville","value":6.7262,"population":834000,"latitude":0.3925,"longitude":9.4537,"slug":724},{"city":"Banjul","value":6.1115,"population":451000,"latitude":13.4531,"longitude":-16.6794,"slug":725},{"city":"Tbilisi","value":6.9829,"population":1078000,"latitude":41.6941,"longitude":44.8337,"slug":726},{"city":"Berlin","value":8.1781,"population":3562000,"latitude":52.5244,"longitude":13.4105,"slug":727},{"city":"Bielefeld","value":5.8111,"population":334000,"latitude":52.0333,"longitude":8.5333,"slug":728},{"city":"Bochum","value":5.9296,"population":376000,"latitude":51.4833,"longitude":7.2167,"slug":729},{"city":"Bonn","value":5.7683,"population":320000,"latitude":50.7344,"longitude":7.0955,"slug":730},{"city":"Bremen","value":6.3368,"population":565000,"latitude":53.0752,"longitude":8.8078,"slug":731},{"city":"Dortmund","value":6.3801,"population":590000,"latitude":51.5167,"longitude":7.45,"slug":732},{"city":"Dresden","value":6.3544,"population":575000,"latitude":51.0509,"longitude":13.7383,"slug":733},{"city":"Duesseldorf","value":6.4489,"population":632000,"latitude":51.2217,"longitude":6.7762,"slug":734},{"city":"Duisburg","value":6.2442,"population":515000,"latitude":51.4333,"longitude":6.75,"slug":735},{"city":"Essen","value":6.3665,"population":582000,"latitude":51.4537,"longitude":7.0104,"slug":736},{"city":"Frankfurt am Main","value":6.6554,"population":777000,"latitude":50.1167,"longitude":8.6833,"slug":737},{"city":"Hamburg","value":7.49,"population":1790000,"latitude":53.55,"longitude":10,"slug":738},{"city":"Hannover","value":6.286,"population":537000,"latitude":52.3705,"longitude":9.7332,"slug":739},{"city":"Karlsruhe","value":5.7621,"population":318000,"latitude":49.0047,"longitude":8.3858,"slug":740},{"city":"K<f6>ln (Cologne)","value":7.0202,"population":1119000,"latitude":50.9333,"longitude":6.95,"slug":741},{"city":"Leipzig","value":6.3818,"population":591000,"latitude":51.3396,"longitude":12.3713,"slug":742},{"city":"Mannheim","value":5.8051,"population":332000,"latitude":49.4883,"longitude":8.4647,"slug":743},{"city":"Muenster (Westfalen)","value":5.7991,"population":330000,"latitude":51.9624,"longitude":7.6257,"slug":744},{"city":"M<fc>nchen (Munich)","value":7.3382,"population":1538000,"latitude":48.1371,"longitude":11.5734,"slug":745},{"city":"Nurenberg","value":6.2383,"population":512000,"latitude":49.4504,"longitude":11.0758,"slug":746},{"city":"Stuttgart","value":6.4505,"population":633000,"latitude":48.7823,"longitude":9.177,"slug":747},{"city":"Wuppertal","value":5.8551,"population":349000,"latitude":51.2667,"longitude":7.1833,"slug":748},{"city":"Accra","value":7.8296,"population":2514000,"latitude":5.556,"longitude":-0.1969,"slug":749},{"city":"Kumasi","value":8.1161,"population":3348000,"latitude":6.6885,"longitude":-1.6244,"slug":750},{"city":"Sekondi Takoradi","value":6.8522,"population":946000,"latitude":4.934,"longitude":-1.7137,"slug":751},{"city":"Tamale","value":6.4646,"population":642000,"latitude":9.4008,"longitude":-0.8393,"slug":752},{"city":"Ath<ed>nai (Athens)","value":8.0561,"population":3153000,"latitude":37.9534,"longitude":23.749,"slug":753},{"city":"Thessaloniki","value":6.6995,"population":812000,"latitude":40.6403,"longitude":22.9439,"slug":754},{"city":"Ciudad de Guatemala (Guatemala City)","value":7.9845,"population":2935000,"latitude":14.6127,"longitude":-90.5307,"slug":755},{"city":"Conakry","value":7.5694,"population":1938000,"latitude":9.5716,"longitude":-13.6476,"slug":756},{"city":"Bissau","value":6.3969,"population":600000,"latitude":11.8636,"longitude":-15.5977,"slug":757},{"city":"Port-au-Prince","value":7.928,"population":2774000,"latitude":18.5392,"longitude":-72.335,"slug":758},{"city":"San Pedro Sula","value":6.8057,"population":903000,"latitude":15.5,"longitude":-88.0333,"slug":759},{"city":"Tegucigalpa","value":7.2752,"population":1444000,"latitude":14.0818,"longitude":-87.2068,"slug":760},{"city":"Budapest","value":7.4776,"population":1768000,"latitude":47.498,"longitude":19.0399,"slug":761},{"city":"Agartala","value":6.3544,"population":575000,"latitude":23.8364,"longitude":91.275,"slug":762},{"city":"Agra","value":7.7007,"population":2210000,"latitude":27.1833,"longitude":78.0167,"slug":763},{"city":"Ahmadabad","value":8.9945,"population":8059000,"latitude":23.0333,"longitude":72.6167,"slug":764},{"city":"Ahmadnagar","value":6.0014,"population":404000,"latitude":19.0833,"longitude":74.7333,"slug":765},{"city":"Aizawl","value":5.9135,"population":370000,"latitude":23.7244,"longitude":92.7175,"slug":766},{"city":"Ajmer","value":6.42,"population":614000,"latitude":26.45,"longitude":74.6333,"slug":767},{"city":"Akola","value":6.1115,"population":451000,"latitude":20.7333,"longitude":77,"slug":768},{"city":"Aligarh","value":7.0992,"population":1211000,"latitude":27.8833,"longitude":78.0833,"slug":769},{"city":"Allahabad","value":7.2399,"population":1394000,"latitude":25.45,"longitude":81.85,"slug":770},{"city":"Alwar","value":6.0615,"population":429000,"latitude":27.5625,"longitude":76.625,"slug":771},{"city":"Amravati","value":6.6227,"population":752000,"latitude":20.9333,"longitude":77.75,"slug":772},{"city":"Amritsar","value":7.2277,"population":1377000,"latitude":31.631,"longitude":74.8755,"slug":773},{"city":"Anand","value":5.9189,"population":372000,"latitude":22.5667,"longitude":72.9333,"slug":774},{"city":"Anantapur","value":6.107,"population":449000,"latitude":14.6833,"longitude":77.6,"slug":775},{"city":"Arrah","value":5.7961,"population":329000,"latitude":25.5631,"longitude":84.6714,"slug":776},{"city":"Asansol","value":7.2661,"population":1431000,"latitude":23.6833,"longitude":86.9833,"slug":777},{"city":"Aurangabad","value":7.3512,"population":1558000,"latitude":19.8766,"longitude":75.3433,"slug":778},{"city":"Baharampur","value":6.0088,"population":407000,"latitude":24.1,"longitude":88.25,"slug":779},{"city":"Bangalore","value":9.4195,"population":12327000,"latitude":12.9719,"longitude":77.5937,"slug":780},{"city":"Barddhaman","value":6.0259,"population":414000,"latitude":23.2406,"longitude":87.8694,"slug":781},{"city":"Bareilly","value":7.1349,"population":1255000,"latitude":28.35,"longitude":79.4167,"slug":782},{"city":"Bathinda","value":5.9081,"population":368000,"latitude":30.2,"longitude":74.95,"slug":783},{"city":"Begusarai","value":6.1485,"population":468000,"latitude":25.4167,"longitude":86.1333,"slug":784},{"city":"Belgaum","value":6.5862,"population":725000,"latitude":15.8521,"longitude":74.5045,"slug":785},{"city":"Bellary","value":6.2558,"population":521000,"latitude":15.15,"longitude":76.9333,"slug":786},{"city":"Bhagalpur","value":6.1717,"population":479000,"latitude":25.25,"longitude":87,"slug":787},{"city":"Bhavnagar","value":6.5511,"population":700000,"latitude":21.7667,"longitude":72.15,"slug":788},{"city":"Bhilwara","value":6.1137,"population":452000,"latitude":25.35,"longitude":74.6333,"slug":789},{"city":"Bhiwandi","value":6.7558,"population":859000,"latitude":19.3,"longitude":73.0667,"slug":790},{"city":"Bhopal","value":7.779,"population":2390000,"latitude":23.2667,"longitude":77.4,"slug":791},{"city":"Bhubaneswar","value":7.0588,"population":1163000,"latitude":20.2333,"longitude":85.8333,"slug":792},{"city":"Bihar Sharif","value":5.9216,"population":373000,"latitude":25.1833,"longitude":85.5167,"slug":793},{"city":"Bijapur","value":6.0259,"population":414000,"latitude":16.8244,"longitude":75.7154,"slug":794},{"city":"Bikaner","value":6.649,"population":772000,"latitude":28.0167,"longitude":73.3,"slug":795},{"city":"Bilaspur","value":6.3969,"population":600000,"latitude":22.0783,"longitude":82.1457,"slug":796},{"city":"Bokaro Steel City","value":6.452,"population":634000,"latitude":23.6645,"longitude":86.1478,"slug":797},{"city":"Brahmapur","value":6.0113,"population":408000,"latitude":19.3167,"longitude":84.7833,"slug":798},{"city":"Chandigarh","value":7.0458,"population":1148000,"latitude":30.7343,"longitude":76.7933,"slug":799},{"city":"Chandrapur","value":5.8636,"population":352000,"latitude":19.95,"longitude":79.3,"slug":800},{"city":"Chennai (Madras)","value":9.303,"population":10971000,"latitude":13.0531,"longitude":80.2488,"slug":801},{"city":"Cherthala","value":6.6386,"population":764000,"latitude":9.6835,"longitude":76.3367,"slug":802},{"city":"Coimbatore","value":7.9327,"population":2787000,"latitude":10.9925,"longitude":76.9614,"slug":803},{"city":"Cuttack","value":6.6093,"population":742000,"latitude":20.465,"longitude":85.8793,"slug":804},{"city":"Darbhanga","value":5.8608,"population":351000,"latitude":26.1667,"longitude":85.9,"slug":805},{"city":"Davanagere","value":6.2383,"population":512000,"latitude":14.4608,"longitude":75.9199,"slug":806},{"city":"Dehradun","value":6.8233,"population":919000,"latitude":30.3167,"longitude":78.0333,"slug":807},{"city":"Delhi","value":10.3186,"population":30291000,"latitude":28.6667,"longitude":77.2167,"slug":808},{"city":"Deoghar","value":5.8551,"population":349000,"latitude":24.4886,"longitude":86.699,"slug":809},{"city":"Dewas","value":5.8749,"population":356000,"latitude":22.9667,"longitude":76.0667,"slug":810},{"city":"Dhanbad","value":7.1937,"population":1331000,"latitude":23.8,"longitude":86.45,"slug":811},{"city":"Dhule","value":6.0162,"population":410000,"latitude":20.9,"longitude":74.7833,"slug":812},{"city":"Dhulian","value":5.9738,"population":393000,"latitude":24.6709,"longitude":87.9482,"slug":813},{"city":"Dindigul","value":5.9558,"population":386000,"latitude":10.369,"longitude":77.9804,"slug":814},{"city":"Durgapur","value":6.5147,"population":675000,"latitude":23.5204,"longitude":87.3119,"slug":815},{"city":"Durg-Bhilainagar","value":7.0967,"population":1208000,"latitude":21.1887,"longitude":81.2806,"slug":816},{"city":"English Bazar","value":6.0568,"population":427000,"latitude":25,"longitude":88.15,"slug":817},{"city":"Erode","value":6.4536,"population":635000,"latitude":11.3428,"longitude":77.7274,"slug":818},{"city":"Farrukhabad","value":5.8406,"population":344000,"latitude":27.3905,"longitude":79.5801,"slug":819},{"city":"Firozabad","value":6.7105,"population":821000,"latitude":27.15,"longitude":78.4167,"slug":820},{"city":"Gandhidham","value":5.9661,"population":390000,"latitude":23.0671,"longitude":70.14,"slug":821},{"city":"Gaya","value":6.3368,"population":565000,"latitude":24.7833,"longitude":85,"slug":822},{"city":"Gorakhpur","value":6.6307,"population":758000,"latitude":26.7599,"longitude":83.3714,"slug":823},{"city":"Gulbarga","value":6.5117,"population":673000,"latitude":17.3333,"longitude":76.8333,"slug":824},{"city":"Guntur","value":6.7499,"population":854000,"latitude":16.3,"longitude":80.45,"slug":825},{"city":"Guwahati (Gauhati)","value":7.0184,"population":1117000,"latitude":26.1735,"longitude":91.7503,"slug":826},{"city":"Gwalior","value":7.2284,"population":1378000,"latitude":26.2236,"longitude":78.1792,"slug":827},{"city":"Habra","value":5.8522,"population":348000,"latitude":22.8344,"longitude":88.6275,"slug":828},{"city":"Haldwani-cum-kathgodam","value":5.7961,"population":329000,"latitude":29.2187,"longitude":79.5184,"slug":829},{"city":"Hapur","value":5.7714,"population":321000,"latitude":28.7167,"longitude":77.7833,"slug":830},{"city":"Hardwar","value":6.0544,"population":426000,"latitude":29.9667,"longitude":78.1667,"slug":831},{"city":"Hisar","value":5.8693,"population":354000,"latitude":29.1667,"longitude":75.7167,"slug":832},{"city":"Hosur","value":6.2025,"population":494000,"latitude":12.7167,"longitude":77.8167,"slug":833},{"city":"Hubli-Dharwad","value":7.0184,"population":1117000,"latitude":15.4587,"longitude":75.0106,"slug":834},{"city":"Hyderabad","value":9.2107,"population":10004000,"latitude":17.3753,"longitude":78.4744,"slug":835},{"city":"Ichalkaranji","value":5.9054,"population":367000,"latitude":16.7,"longitude":74.4667,"slug":836},{"city":"Imphal","value":6.3561,"population":576000,"latitude":24.8167,"longitude":93.95,"slug":837},{"city":"Indore","value":8.012,"population":3017000,"latitude":22.7179,"longitude":75.8333,"slug":838},{"city":"Jabalpur","value":7.2793,"population":1450000,"latitude":23.167,"longitude":79.9501,"slug":839},{"city":"Jaipur","value":8.271,"population":3909000,"latitude":26.9167,"longitude":75.8167,"slug":840},{"city":"Jalandhar","value":6.9603,"population":1054000,"latitude":31.3256,"longitude":75.5792,"slug":841},{"city":"Jalgaon","value":6.3368,"population":565000,"latitude":21.0092,"longitude":75.5644,"slug":842},{"city":"Jalna","value":5.8319,"population":341000,"latitude":19.8333,"longitude":75.8833,"slug":843},{"city":"Jammu","value":6.5539,"population":702000,"latitude":32.7278,"longitude":74.8569,"slug":844},{"city":"Jamnagar","value":6.4693,"population":645000,"latitude":22.4667,"longitude":70.0667,"slug":845},{"city":"Jamshedpur","value":7.3771,"population":1599000,"latitude":22.8,"longitude":86.1833,"slug":846},{"city":"Jhansi","value":6.4661,"population":643000,"latitude":25.4333,"longitude":78.5833,"slug":847},{"city":"Jodhpur","value":7.2944,"population":1472000,"latitude":26.2392,"longitude":73.0158,"slug":848},{"city":"Junagadh","value":5.9839,"population":397000,"latitude":21.5167,"longitude":70.4667,"slug":849},{"city":"Kadapa","value":6.0936,"population":443000,"latitude":14.471,"longitude":78.8241,"slug":850},{"city":"Kakinada","value":6.2422,"population":514000,"latitude":16.9333,"longitude":82.2167,"slug":851},{"city":"Kanhangad","value":5.8289,"population":340000,"latitude":12.3081,"longitude":75.1063,"slug":852},{"city":"Kannur","value":7.6811,"population":2167000,"latitude":11.8729,"longitude":75.3716,"slug":853},{"city":"Kanpur","value":8.0469,"population":3124000,"latitude":26.4667,"longitude":80.35,"slug":854},{"city":"Karimnagar","value":5.9789,"population":395000,"latitude":18.4333,"longitude":79.15,"slug":855},{"city":"Karnal","value":5.9965,"population":402000,"latitude":29.6833,"longitude":76.9833,"slug":856},{"city":"Karur","value":5.8464,"population":346000,"latitude":10.9577,"longitude":78.081,"slug":857},{"city":"Kayamkulam","value":6.5439,"population":695000,"latitude":9.1666,"longitude":76.5043,"slug":858},{"city":"Khammam","value":5.826,"population":339000,"latitude":17.25,"longitude":80.15,"slug":859},{"city":"Kharagpur","value":5.79,"population":327000,"latitude":22.3263,"longitude":87.3192,"slug":860},{"city":"Kochi (Cochin)","value":8.0333,"population":3082000,"latitude":9.9307,"longitude":76.2601,"slug":861},{"city":"Kolhapur","value":6.4281,"population":619000,"latitude":16.6956,"longitude":74.2317,"slug":862},{"city":"Kolkata (Calcutta)","value":9.6058,"population":14850000,"latitude":22.5335,"longitude":88.356,"slug":863},{"city":"Kollam","value":7.524,"population":1852000,"latitude":8.8806,"longitude":76.5917,"slug":864},{"city":"Korba","value":6.0355,"population":418000,"latitude":22.35,"longitude":82.6833,"slug":865},{"city":"Kota","value":7.2349,"population":1387000,"latitude":25.1665,"longitude":75.8561,"slug":866},{"city":"Kottayam","value":6.5453,"population":696000,"latitude":9.5833,"longitude":76.5167,"slug":867},{"city":"Kozhikode (Calicut)","value":8.1761,"population":3555000,"latitude":11.2567,"longitude":75.7787,"slug":868},{"city":"Kurnool","value":6.4998,"population":665000,"latitude":15.8267,"longitude":78.0352,"slug":869},{"city":"Latur","value":6.1717,"population":479000,"latitude":18.4,"longitude":76.5833,"slug":870},{"city":"Lucknow","value":8.2099,"population":3677000,"latitude":26.85,"longitude":80.9167,"slug":871},{"city":"Ludhiana","value":7.5267,"population":1857000,"latitude":30.9,"longitude":75.85,"slug":872},{"city":"Madurai","value":7.4582,"population":1734000,"latitude":9.9333,"longitude":78.1167,"slug":873},{"city":"Malappuram","value":8.1289,"population":3391000,"latitude":11.0667,"longitude":76.0667,"slug":874},{"city":"Malegaon","value":6.5737,"population":716000,"latitude":20.55,"longitude":74.5333,"slug":875},{"city":"Mangalore","value":6.5695,"population":713000,"latitude":12.9172,"longitude":74.856,"slug":876},{"city":"Mathura","value":6.3767,"population":588000,"latitude":27.5,"longitude":77.6833,"slug":877},{"city":"Maunath Bhanjan","value":5.8805,"population":358000,"latitude":25.9475,"longitude":83.559,"slug":878},{"city":"Meerut","value":7.436,"population":1696000,"latitude":28.9716,"longitude":77.7193,"slug":879},{"city":"Moradabad","value":7.0876,"population":1197000,"latitude":28.8333,"longitude":78.7833,"slug":880},{"city":"Morvi","value":5.8464,"population":346000,"latitude":22.8167,"longitude":70.8333,"slug":881},{"city":"Mumbai (Bombay)","value":9.9238,"population":20411000,"latitude":19.074,"longitude":72.8808,"slug":882},{"city":"Muzaffarnagar","value":6.5751,"population":717000,"latitude":29.4667,"longitude":77.6833,"slug":883},{"city":"Muzaffarpur","value":6.2226,"population":504000,"latitude":26.1167,"longitude":85.4,"slug":884},{"city":"Mysore","value":7.0984,"population":1210000,"latitude":12.2979,"longitude":76.6393,"slug":885},{"city":"Nagpur","value":7.97,"population":2893000,"latitude":21.15,"longitude":79.1,"slug":886},{"city":"Nanded Waghala","value":6.5367,"population":690000,"latitude":19.1618,"longitude":77.3137,"slug":887},{"city":"Nashik","value":7.6334,"population":2066000,"latitude":19.9833,"longitude":73.8,"slug":888},{"city":"Navsari","value":5.826,"population":339000,"latitude":20.9485,"longitude":72.9308,"slug":889},{"city":"Nellore","value":6.6214,"population":751000,"latitude":14.4463,"longitude":79.9842,"slug":890},{"city":"Nizamabad","value":5.8081,"population":333000,"latitude":18.6715,"longitude":78.0988,"slug":891},{"city":"Ottappalam","value":5.9532,"population":385000,"latitude":10.7667,"longitude":76.3833,"slug":892},{"city":"Palakkad","value":5.9081,"population":368000,"latitude":10.7725,"longitude":76.6514,"slug":893},{"city":"Panipat","value":6.3063,"population":548000,"latitude":29.3889,"longitude":76.9681,"slug":894},{"city":"Parbhani","value":5.8833,"population":359000,"latitude":19.2667,"longitude":76.7833,"slug":895},{"city":"Patiala","value":6.3953,"population":599000,"latitude":30.3267,"longitude":76.4003,"slug":896},{"city":"Patna","value":7.7981,"population":2436000,"latitude":25.6,"longitude":85.1167,"slug":897},{"city":"Puducherry","value":6.7286,"population":836000,"latitude":11.93,"longitude":79.83,"slug":898},{"city":"Pune (Poona)","value":8.7992,"population":6629000,"latitude":18.5161,"longitude":73.8616,"slug":899},{"city":"Purnia","value":6.1696,"population":478000,"latitude":25.7833,"longitude":87.4667,"slug":900},{"city":"Raipur","value":7.4037,"population":1642000,"latitude":21.2333,"longitude":81.6333,"slug":901},{"city":"Rajahmundry","value":6.2989,"population":544000,"latitude":17.0038,"longitude":81.7894,"slug":902},{"city":"Rajkot","value":7.538,"population":1878000,"latitude":22.3,"longitude":70.7833,"slug":903},{"city":"Rampur","value":6.0544,"population":426000,"latitude":28.8062,"longitude":79.0277,"slug":904},{"city":"Ranchi","value":7.2717,"population":1439000,"latitude":23.35,"longitude":85.3333,"slug":905},{"city":"Raniganj","value":6.0162,"population":410000,"latitude":23.6164,"longitude":87.1306,"slug":906},{"city":"Ranipet","value":5.8749,"population":356000,"latitude":12.9315,"longitude":79.3323,"slug":907},{"city":"Ratlam","value":5.7557,"population":316000,"latitude":23.3167,"longitude":75.0667,"slug":908},{"city":"Raurkela","value":6.4345,"population":623000,"latitude":22.2249,"longitude":84.8618,"slug":909},{"city":"Rohtak","value":6.1463,"population":467000,"latitude":28.9,"longitude":76.5667,"slug":910},{"city":"Roorkee","value":5.8693,"population":354000,"latitude":29.8667,"longitude":77.8833,"slug":911},{"city":"Sagar","value":6.0799,"population":437000,"latitude":23.8405,"longitude":78.7385,"slug":912},{"city":"Saharanpur","value":6.9603,"population":1054000,"latitude":29.9667,"longitude":77.55,"slug":913},{"city":"Salem","value":7.0049,"population":1102000,"latitude":11.65,"longitude":78.1667,"slug":914},{"city":"Sangli","value":6.3699,"population":584000,"latitude":16.8544,"longitude":74.5642,"slug":915},{"city":"Santipur","value":5.9054,"population":367000,"latitude":23.2472,"longitude":88.433,"slug":916},{"city":"Satna","value":5.8377,"population":343000,"latitude":24.5833,"longitude":80.8333,"slug":917},{"city":"Shahjahanpur","value":5.9243,"population":374000,"latitude":27.8833,"longitude":79.9167,"slug":918},{"city":"Shillong","value":6.1312,"population":460000,"latitude":25.5689,"longitude":91.8831,"slug":919},{"city":"Shimoga","value":5.9269,"population":375000,"latitude":13.9316,"longitude":75.5679,"slug":920},{"city":"Siliguri","value":6.9276,"population":1020000,"latitude":26.7161,"longitude":88.4236,"slug":921},{"city":"Solapur","value":6.9383,"population":1031000,"latitude":17.6833,"longitude":75.9167,"slug":922},{"city":"Srinagar","value":7.369,"population":1586000,"latitude":34.0837,"longitude":74.7974,"slug":923},{"city":"Surat","value":8.8798,"population":7185000,"latitude":21.1667,"longitude":72.8333,"slug":924},{"city":"Thanjavur","value":5.8201,"population":337000,"latitude":10.8,"longitude":79.15,"slug":925},{"city":"Thiruvananthapuram","value":7.8575,"population":2585000,"latitude":8.5069,"longitude":76.9569,"slug":926},{"city":"Thoothukkudi (Tuticorin)","value":6.3297,"population":561000,"latitude":8.809,"longitude":78.1369,"slug":927},{"city":"Thrissur","value":8.0288,"population":3068000,"latitude":10.5167,"longitude":76.2167,"slug":928},{"city":"Tiruchirappalli","value":7.0605,"population":1165000,"latitude":10.805,"longitude":78.6856,"slug":929},{"city":"Tirunelveli","value":6.3386,"population":566000,"latitude":8.7333,"longitude":77.7,"slug":930},{"city":"Tirupati","value":6.5206,"population":679000,"latitude":13.65,"longitude":79.4167,"slug":931},{"city":"Tiruppur","value":7.3106,"population":1496000,"latitude":11.1154,"longitude":77.3546,"slug":932},{"city":"Tumkur","value":5.8889,"population":361000,"latitude":13.3422,"longitude":77.1017,"slug":933},{"city":"Udaipur","value":6.3439,"population":569000,"latitude":24.5661,"longitude":73.6911,"slug":934},{"city":"Ujjain","value":6.4085,"population":607000,"latitude":23.1833,"longitude":75.7667,"slug":935},{"city":"Vadodara","value":7.6917,"population":2190000,"latitude":22.3,"longitude":73.2,"slug":936},{"city":"Varanasi (Benares)","value":7.4176,"population":1665000,"latitude":25.3164,"longitude":82.9822,"slug":937},{"city":"Vellore","value":6.3439,"population":569000,"latitude":12.9333,"longitude":79.1333,"slug":938},{"city":"Vijayawada","value":7.6207,"population":2040000,"latitude":16.5167,"longitude":80.6167,"slug":939},{"city":"Visakhapatnam","value":7.6848,"population":2175000,"latitude":17.6819,"longitude":83.2097,"slug":940},{"city":"Warangal","value":6.8669,"population":960000,"latitude":18,"longitude":79.5833,"slug":941},{"city":"Yamunanagar","value":6.1115,"population":451000,"latitude":30.1,"longitude":77.2833,"slug":942},{"city":"Ambon","value":6.2403,"population":513000,"latitude":-3.6954,"longitude":128.1814,"slug":943},{"city":"Balikpapan","value":6.525,"population":682000,"latitude":-1.2675,"longitude":116.8289,"slug":944},