[
    {
        "fua_name": "Andorra la Vella",
        "latitude": "42.5063",
        "longitude": "1.5218"
    },
    {
        "fua_name": "Wien",
        "latitude": "48.2082",
        "longitude": "16.3738"
    },
    {
        "fua_name": "Graz",
        "latitude": "47.07",
        "longitude": "15.44"
    },
    {
        "fua_name": "Linz",
        "latitude": "48.3069",
        "longitude": "14.2862"
    },
    {
        "fua_name": "Salzburg",
        "latitude": "47.8095",
        "longitude": "13.055"
    },
    {
        "fua_name": "Innsbruck",
        "latitude": "47.26",
        "longitude": "11.39"
    },
    {
        "fua_name": "Greater Sydney",
        "latitude": "-33.87",
        "longitude": "151.21"
    },
    {
        "fua_name": "Greater Melbourne",
        "latitude": "-37.81",
        "longitude": "144.96"
    },
    {
        "fua_name": "Gold Coast",
        "latitude": "-28.0167",
        "longitude": "153.4"
    },
    {
        "fua_name": "Greater Brisbane",
        "latitude": "-27.47",
        "longitude": "153.03"
    },
    {
        "fua_name": "Greater Adelaide",
        "latitude": "-34.92",
        "longitude": "138.6"
    },
    {
        "fua_name": "Greater Perth",
        "latitude": "-31.9505",
        "longitude": "115.8605"
    },
    {
        "fua_name": "Australian Capital Territory",
        "latitude": "-35.28",
        "longitude": "149.13"
    },
    {
        "fua_name": "Bruxelles / Brussel",
        "latitude": "50.85",
        "longitude": "4.35"
    },
    {
        "fua_name": "Antwerpen",
        "latitude": "51.22",
        "longitude": "4.4"
    },
    {
        "fua_name": "Gent",
        "latitude": "51.4917",
        "longitude": "-0.0144"
    },
    {
        "fua_name": "Brugges",
        "latitude": "51.21",
        "longitude": "3.23"
    },
    {
        "fua_name": "Charleroi",
        "latitude": "50.41",
        "longitude": "4.44"
    },
    {
        "fua_name": "Liège",
        "latitude": "50.63373",
        "longitude": "5.56749"
    },
    {
        "fua_name": "Namur",
        "latitude": "50.4669",
        "longitude": "4.8675"
    },
    {
        "fua_name": "Varna",
        "latitude": "43.21",
        "longitude": "27.92"
    },
    {
        "fua_name": "Burgas",
        "latitude": "41.63",
        "longitude": "-2.75"
    },
    {
        "fua_name": "Sofia",
        "latitude": "42.698334",
        "longitude": "23.319941"
    },
    {
        "fua_name": "Plovdiv",
        "latitude": "42.15",
        "longitude": "24.75"
    },
    {
        "fua_name": "Manaus",
        "latitude": "-3.4653",
        "longitude": "-62.2159"
    },
    {
        "fua_name": "Belem",
        "latitude": "1.4451",
        "longitude": "103.8048"
    },
    {
        "fua_name": "Salvador",
        "latitude": "-12.97",
        "longitude": "-38.5"
    },
    {
        "fua_name": "Fortaleza",
        "latitude": "-3.73",
        "longitude": "-38.52"
    },
    {
        "fua_name": "Recife",
        "latitude": "-8.0522",
        "longitude": "-34.9286"
    },
    {
        "fua_name": "Porto Alegre",
        "latitude": "-30.0346",
        "longitude": "-51.2177"
    },
    {
        "fua_name": "Belo Horizonte",
        "latitude": "-19.92",
        "longitude": "-43.94"
    },
    {
        "fua_name": "Rio De Janeiro",
        "latitude": "-22.9068",
        "longitude": "-43.1729"
    },
    {
        "fua_name": "Sao Paulo",
        "latitude": "-23.55",
        "longitude": "-46.63"
    },
    {
        "fua_name": "Curitiba",
        "latitude": "-25.48",
        "longitude": "-49.27"
    },
    {
        "fua_name": "Brasilia",
        "latitude": "-15.77",
        "longitude": "-47.93"
    },
    {
        "fua_name": "Goiania",
        "latitude": "-16.67",
        "longitude": "-49.26"
    },
    {
        "fua_name": "Communauté-Urbaine-de-Québec, QC",
        "latitude": "46.8139",
        "longitude": "-71.2082"
    },
    {
        "fua_name": "Communauté-Urbaine-de-Montréal, QC",
        "latitude": "45.5",
        "longitude": "-73.56"
    },
    {
        "fua_name": "Ottawa-Carleton, ON",
        "latitude": "45.4215",
        "longitude": "-75.6972"
    },
    {
        "fua_name": "Toronto metropolitan municipality, ON",
        "latitude": "43.7",
        "longitude": "-79.42"
    },
    {
        "fua_name": "Kitchener-Waterloo",
        "latitude": "43.45",
        "longitude": "-80.49"
    },
    {
        "fua_name": "Winnipeg",
        "latitude": "49.8951",
        "longitude": "-97.1384"
    },
    {
        "fua_name": "Calgary",
        "latitude": "51.0447",
        "longitude": "-114.0719"
    },
    {
        "fua_name": "Edmonton",
        "latitude": "53.54",
        "longitude": "-113.49"
    },
    {
        "fua_name": "Greater Vancouver, BC",
        "latitude": "49.28",
        "longitude": "-123.12"
    },
    {
        "fua_name": "Lausanne",
        "latitude": "46.52",
        "longitude": "6.63"
    },
    {
        "fua_name": "Genève",
        "latitude": "46.2",
        "longitude": "6.15"
    },
    {
        "fua_name": "Bern",
        "latitude": "45.28",
        "longitude": "5.87"
    },
    {
        "fua_name": "Basel",
        "latitude": "47.56",
        "longitude": "7.59"
    },
    {
        "fua_name": "Zürich",
        "latitude": "47.3769",
        "longitude": "8.5417"
    },
    {
        "fua_name": "Santiago Metropolitan",
        "latitude": "-33.45",
        "longitude": "-70.67"
    },
    {
        "fua_name": "Beijing",
        "latitude": "39.9042",
        "longitude": "116.4074"
    },
    {
        "fua_name": "Tianjin",
        "latitude": "39.3434",
        "longitude": "117.3616"
    },
    {
        "fua_name": "Shijiazhuang",
        "latitude": "38.04",
        "longitude": "114.47"
    },
    {
        "fua_name": "Taiyuan",
        "latitude": "37.87",
        "longitude": "112.53"
    },
    {
        "fua_name": "Hohhot",
        "latitude": "40.82",
        "longitude": "111.65"
    },
    {
        "fua_name": "Shenyang",
        "latitude": "41.8",
        "longitude": "123.43"
    },
    {
        "fua_name": "Changchun",
        "latitude": "43.89",
        "longitude": "125.35"
    },
    {
        "fua_name": "Harbin",
        "latitude": "45.8",
        "longitude": "126.53"
    },
    {
        "fua_name": "Shanghai",
        "latitude": "31.22",
        "longitude": "121.46"
    },
    {
        "fua_name": "Nanjing",
        "latitude": "32.06",
        "longitude": "118.79"
    },
    {
        "fua_name": "Hangzhou",
        "latitude": "30.25",
        "longitude": "120.16"
    },
    {
        "fua_name": "Hefei",
        "latitude": "31.82",
        "longitude": "117.22"
    },
    {
        "fua_name": "Xiamen",
        "latitude": "24.48",
        "longitude": "118.08"
    },
    {
        "fua_name": "Nanchang",
        "latitude": "28.68",
        "longitude": "115.85"
    },
    {
        "fua_name": "Weifang",
        "latitude": "36.71",
        "longitude": "119.1"
    },
    {
        "fua_name": "Zhengzhou",
        "latitude": "34.75",
        "longitude": "113.63"
    },
    {
        "fua_name": "Wuhan",
        "latitude": "30.5928",
        "longitude": "114.3055"
    },
    {
        "fua_name": "Changsha",
        "latitude": "28.23",
        "longitude": "112.93"
    },
    {
        "fua_name": "Guangzhou",
        "latitude": "23.13",
        "longitude": "113.26"
    },
    {
        "fua_name": "Shenzhen",
        "latitude": "22.54",
        "longitude": "114.06"
    },
    {
        "fua_name": "Nanning",
        "latitude": "22.82",
        "longitude": "108.32"
    },
    {
        "fua_name": "Haikou",
        "latitude": "20.04",
        "longitude": "110.34"
    },
    {
        "fua_name": "Chongqing",
        "latitude": "29.4316",
        "longitude": "106.9123"
    },
    {
        "fua_name": "Chengdu",
        "latitude": "30.5728",
        "longitude": "104.0668"
    },
    {
        "fua_name": "Guiyang",
        "latitude": "26.65",
        "longitude": "106.63"
    },
    {
        "fua_name": "Kunming",
        "latitude": "25.04",
        "longitude": "102.72"
    },
    {
        "fua_name": "Xian",
        "latitude": "34.3416",
        "longitude": "108.9398"
    },
    {
        "fua_name": "Lanzhou",
        "latitude": "36.06",
        "longitude": "103.79"
    },
    {
        "fua_name": "Xining",
        "latitude": "36.62",
        "longitude": "101.77"
    },
    {
        "fua_name": "Yinchuan",
        "latitude": "38.47",
        "longitude": "106.27"
    },
    {
        "fua_name": "Urumqi",
        "latitude": "43.82",
        "longitude": "87.6"
    },
    {
        "fua_name": "Lefkosia",
        "latitude": "35.18",
        "longitude": "33.36"
    },
    {
        "fua_name": "Praha",
        "latitude": "50.0833",
        "longitude": "14.4167"
    },
    {
        "fua_name": "Plzen",
        "latitude": "49.7384",
        "longitude": "13.3736"
    },
    {
        "fua_name": "Liberec",
        "latitude": "50.77",
        "longitude": "15.06"
    },
    {
        "fua_name": "Brno",
        "latitude": "49.1951",
        "longitude": "16.6068"
    },
    {
        "fua_name": "Olomouc",
        "latitude": "49.5938",
        "longitude": "17.2509"
    },
    {
        "fua_name": "Ostrava",
        "latitude": "49.83",
        "longitude": "18.28"
    },
    {
        "fua_name": "Stuttgart",
        "latitude": "48.78",
        "longitude": "9.18"
    },
    {
        "fua_name": "Heilbronn",
        "latitude": "49.14",
        "longitude": "9.22"
    },
    {
        "fua_name": "Karlsruhe",
        "latitude": "49.0069",
        "longitude": "8.4037"
    },
    {
        "fua_name": "Heidelberg",
        "latitude": "49.41",
        "longitude": "8.7"
    },
    {
        "fua_name": "Mannheim-Ludwigshafen",
        "latitude": "49.49",
        "longitude": "8.46"
    },
    {
        "fua_name": "Pforzheim",
        "latitude": "48.89",
        "longitude": "8.7"
    },
    {
        "fua_name": "Freiburg im Breisgau",
        "latitude": "47.9960901",
        "longitude": "7.8494005"
    },
    {
        "fua_name": "Offenburg",
        "latitude": "48.4737",
        "longitude": "7.9443"
    },
    {
        "fua_name": "Konstanz",
        "latitude": "47.66",
        "longitude": "9.18"
    },
    {
        "fua_name": "Reutlingen",
        "latitude": "48.49",
        "longitude": "9.2"
    },
    {
        "fua_name": "Ulm",
        "latitude": "48.3984",
        "longitude": "9.9916"
    },
    {
        "fua_name": "Ingolstadt",
        "latitude": "48.7665",
        "longitude": "11.4258"
    },
    {
        "fua_name": "München",
        "latitude": "48.1351",
        "longitude": "11.582"
    },
    {
        "fua_name": "Rosenheim",
        "latitude": "47.86",
        "longitude": "12.12"
    },
    {
        "fua_name": "Regensburg",
        "latitude": "49.02",
        "longitude": "12.1"
    },
    {
        "fua_name": "Bayreuth",
        "latitude": "49.9456",
        "longitude": "11.571"
    },
    {
        "fua_name": "Nürnberg",
        "latitude": "49.4521",
        "longitude": "11.0767"
    },
    {
        "fua_name": "Aschaffenburg",
        "latitude": "49.976",
        "longitude": "9.1447"
    },
    {
        "fua_name": "Schweinfurt",
        "latitude": "50.04",
        "longitude": "10.23"
    },
    {
        "fua_name": "Würzburg",
        "latitude": "49.79",
        "longitude": "9.94"
    },
    {
        "fua_name": "Augsburg",
        "latitude": "48.37",
        "longitude": "10.89"
    },
    {
        "fua_name": "Berlin",
        "latitude": "52.52",
        "longitude": "13.405"
    },
    {
        "fua_name": "Cottbus",
        "latitude": "51.7563",
        "longitude": "14.3329"
    },
    {
        "fua_name": "Bremen",
        "latitude": "53.08",
        "longitude": "8.81"
    },
    {
        "fua_name": "Bremerhaven",
        "latitude": "53.55",
        "longitude": "8.58"
    },
    {
        "fua_name": "Hamburg",
        "latitude": "53.55",
        "longitude": "9.99"
    },
    {
        "fua_name": "Darmstadt",
        "latitude": "49.87",
        "longitude": "8.65"
    },
    {
        "fua_name": "Frankfurt am Main",
        "latitude": "50.1109",
        "longitude": "8.6821"
    },
    {
        "fua_name": "Wiesbaden",
        "latitude": "50.0827",
        "longitude": "8.2493"
    },
    {
        "fua_name": "Gießen",
        "latitude": "50.5871",
        "longitude": "8.6734"
    },
    {
        "fua_name": "Wetzlar",
        "latitude": "50.5546",
        "longitude": "8.5066"
    },
    {
        "fua_name": "Kassel",
        "latitude": "51.31",
        "longitude": "9.49"
    },
    {
        "fua_name": "Rostock",
        "latitude": "54.08",
        "longitude": "12.13"
    },
    {
        "fua_name": "Schwerin",
        "latitude": "53.63",
        "longitude": "11.41"
    },
    {
        "fua_name": "Neubrandenburg",
        "latitude": "53.56",
        "longitude": "13.26"
    },
    {
        "fua_name": "Braunschweig-Salzgitter-Wolfsburg",
        "latitude": "52.2689",
        "longitude": "10.5267"
    },
    {
        "fua_name": "Göttingen",
        "latitude": "51.5413",
        "longitude": "9.9158"
    },
    {
        "fua_name": "Hildesheim",
        "latitude": "52.15",
        "longitude": "9.95"
    },
    {
        "fua_name": "Hannover",
        "latitude": "52.3759",
        "longitude": "9.732"
    },
    {
        "fua_name": "Oldenburg (Oldenburg)",
        "latitude": "53.1439",
        "longitude": "8.2145"
    },
    {
        "fua_name": "Osnabrück",
        "latitude": "52.2799",
        "longitude": "8.0472"
    },
    {
        "fua_name": "Düsseldorf",
        "latitude": "51.2277",
        "longitude": "6.7735"
    },
    {
        "fua_name": "Ruhrgebiet",
        "latitude": "51.45",
        "longitude": "7.01"
    },
    {
        "fua_name": "Krefeld",
        "latitude": "51.33",
        "longitude": "6.57"
    },
    {
        "fua_name": "Mönchengladbach",
        "latitude": "51.18",
        "longitude": "6.44"
    },
    {
        "fua_name": "Remscheid",
        "latitude": "51.17",
        "longitude": "7.2"
    },
    {
        "fua_name": "Solingen",
        "latitude": "51.17",
        "longitude": "7.08"
    },
    {
        "fua_name": "Wuppertal",
        "latitude": "51.2562",
        "longitude": "7.1508"
    },
    {
        "fua_name": "Bonn",
        "latitude": "50.73",
        "longitude": "7.1"
    },
    {
        "fua_name": "Köln",
        "latitude": "50.9375",
        "longitude": "6.9603"
    },
    {
        "fua_name": "Düren",
        "latitude": "50.8",
        "longitude": "6.49"
    },
    {
        "fua_name": "Aachen",
        "latitude": "50.7753",
        "longitude": "6.0839"
    },
    {
        "fua_name": "Münster",
        "latitude": "51.96",
        "longitude": "7.63"
    },
    {
        "fua_name": "Bocholt",
        "latitude": "51.8387",
        "longitude": "6.6155"
    },
    {
        "fua_name": "Bielefeld",
        "latitude": "52.03",
        "longitude": "8.53"
    },
    {
        "fua_name": "Paderborn",
        "latitude": "51.72",
        "longitude": "8.76"
    },
    {
        "fua_name": "Iserlohn",
        "latitude": "51.38",
        "longitude": "7.7"
    },
    {
        "fua_name": "Siegen",
        "latitude": "50.8748",
        "longitude": "8.0223"
    },
    {
        "fua_name": "Koblenz",
        "latitude": "50.36",
        "longitude": "7.6"
    },
    {
        "fua_name": "Trier",
        "latitude": "49.75",
        "longitude": "6.64"
    },
    {
        "fua_name": "Kaiserslautern",
        "latitude": "49.44",
        "longitude": "7.75"
    },
    {
        "fua_name": "Mainz",
        "latitude": "49.9929",
        "longitude": "8.2473"
    },
    {
        "fua_name": "Saarbrücken",
        "latitude": "49.2333",
        "longitude": "6.9833"
    },
    {
        "fua_name": "Dresden",
        "latitude": "51.05",
        "longitude": "13.73"
    },
    {
        "fua_name": "Görlitz",
        "latitude": "51.15",
        "longitude": "14.97"
    },
    {
        "fua_name": "Chemnitz",
        "latitude": "50.83",
        "longitude": "12.92"
    },
    {
        "fua_name": "Zwickau",
        "latitude": "50.71",
        "longitude": "12.49"
    },
    {
        "fua_name": "Leipzig",
        "latitude": "51.34",
        "longitude": "12.37"
    },
    {
        "fua_name": "Halle an der Saale",
        "latitude": "51.49",
        "longitude": "11.97"
    },
    {
        "fua_name": "Magdeburg",
        "latitude": "52.13",
        "longitude": "11.64"
    },
    {
        "fua_name": "Flensburg",
        "latitude": "54.78",
        "longitude": "9.43"
    },
    {
        "fua_name": "Kiel",
        "latitude": "54.32",
        "longitude": "10.13"
    },
    {
        "fua_name": "Lübeck",
        "latitude": "53.8668",
        "longitude": "10.6866"
    },
    {
        "fua_name": "Erfurt",
        "latitude": "50.9787",
        "longitude": "11.0328"
    },
    {
        "fua_name": "Gera",
        "latitude": "49.7258",
        "longitude": "5.5848"
    },
    {
        "fua_name": "Jena",
        "latitude": "32.4656",
        "longitude": "35.2906"
    },
    {
        "fua_name": "København",
        "latitude": "55.6761",
        "longitude": "12.5683"
    },
    {
        "fua_name": "Odense",
        "latitude": "55.396229",
        "longitude": "10.3906"
    },
    {
        "fua_name": "Århus",
        "latitude": "56.16",
        "longitude": "10.21"
    },
    {
        "fua_name": "Aalborg",
        "latitude": "57.05",
        "longitude": "9.92"
    },
    {
        "fua_name": "Tallinn",
        "latitude": "59.437",
        "longitude": "24.7536"
    },
    {
        "fua_name": "Tartu",
        "latitude": "58.38",
        "longitude": "26.72"
    },
    {
        "fua_name": "Athina",
        "latitude": "37.98",
        "longitude": "23.73"
    },
    {
        "fua_name": "Heraklion",
        "latitude": "35.34",
        "longitude": "25.13"
    },
    {
        "fua_name": "Thessaloniki",
        "latitude": "40.64",
        "longitude": "22.94"
    },
    {
        "fua_name": "Larissa",
        "latitude": "39.64",
        "longitude": "22.42"
    },
    {
        "fua_name": "A Coruña",
        "latitude": "43.36",
        "longitude": "-8.4"
    },
    {
        "fua_name": "Orense",
        "latitude": "32.6654",
        "longitude": "35.3035"
    },
    {
        "fua_name": "Vigo",
        "latitude": "42.2328",
        "longitude": "-8.7226"
    },
    {
        "fua_name": "Oviedo - Gijón",
        "latitude": "43.36",
        "longitude": "-5.84"
    },
    {
        "fua_name": "Santander",
        "latitude": "43.46",
        "longitude": "-3.81"
    },
    {
        "fua_name": "Vitoria/Gasteiz",
        "latitude": "42.85",
        "longitude": "-2.67"
    },
    {
        "fua_name": "San Sebastian",
        "latitude": "43.32",
        "longitude": "-1.98"
    },
    {
        "fua_name": "Bilbao",
        "latitude": "43.26",
        "longitude": "-2.94"
    },
    {
        "fua_name": "Pamplona/Iruña",
        "latitude": "42.8184",
        "longitude": "-1.6442"
    },
    {
        "fua_name": "Logrono",
        "latitude": "42.46",
        "longitude": "-2.45"
    },
    {
        "fua_name": "Zaragoza",
        "latitude": "41.65",
        "longitude": "-0.88"
    },
    {
        "fua_name": "Madrid",
        "latitude": "40.41",
        "longitude": "-3.7"
    },
    {
        "fua_name": "Burgos",
        "latitude": "42.34",
        "longitude": "-3.7"
    },
    {
        "fua_name": "Leon",
        "latitude": "42.6",
        "longitude": "-5.57"
    },
    {
        "fua_name": "Salamanca",
        "latitude": "40.96",
        "longitude": "-5.66"
    },
    {
        "fua_name": "Valladolid",
        "latitude": "41.65",
        "longitude": "-4.72"
    },
    {
        "fua_name": "Albacete",
        "latitude": "38.99",
        "longitude": "-1.85"
    },
    {
        "fua_name": "Badajoz",
        "latitude": "38.88",
        "longitude": "-6.97"
    },
    {
        "fua_name": "Barcelona",
        "latitude": "41.38",
        "longitude": "2.17"
    },
    {
        "fua_name": "Lleida",
        "latitude": "41.6176",
        "longitude": "0.62"
    },
    {
        "fua_name": "Tarragona",
        "latitude": "41.1189",
        "longitude": "1.2445"
    },
    {
        "fua_name": "Alicante/Alacant - Elche/Elx",
        "latitude": "38.35",
        "longitude": "-0.48"
    },
    {
        "fua_name": "Castellón",
        "latitude": "39.99",
        "longitude": "-0.04"
    },
    {
        "fua_name": "Valencia",
        "latitude": "39.47",
        "longitude": "-0.38"
    },
    {
        "fua_name": "Palma de Mallorca",
        "latitude": "39.57",
        "longitude": "2.65"
    },
    {
        "fua_name": "Almeria",
        "latitude": "36.84",
        "longitude": "-2.46"
    },
    {
        "fua_name": "Cádiz",
        "latitude": "36.52",
        "longitude": "-6.29"
    },
    {
        "fua_name": "Córdoba",
        "latitude": "37.89",
        "longitude": "-4.78"
    },
    {
        "fua_name": "Granada",
        "latitude": "37.19",
        "longitude": "-3.61"
    },
    {
        "fua_name": "Huelva",
        "latitude": "37.26",
        "longitude": "-6.95"
    },
    {
        "fua_name": "Jaen",
        "latitude": "37.77",
        "longitude": "-3.79"
    },
    {
        "fua_name": "Málaga - Marbella",
        "latitude": "36.72",
        "longitude": "-4.42"
    },
    {
        "fua_name": "Sevilla",
        "latitude": "37.38",
        "longitude": "-5.98"
    },
    {
        "fua_name": "Murcia - Cartagena",
        "latitude": "37.98",
        "longitude": "-1.13"
    },
    {
        "fua_name": "Las Palmas",
        "latitude": "28.12",
        "longitude": "-15.43"
    },
    {
        "fua_name": "Santa Cruz de Tenerife",
        "latitude": "28.47",
        "longitude": "-16.25"
    },
    {
        "fua_name": "Tampere",
        "latitude": "61.498",
        "longitude": "23.761"
    },
    {
        "fua_name": "Helsinki",
        "latitude": "60.17",
        "longitude": "24.94"
    },
    {
        "fua_name": "Turku",
        "latitude": "60.45",
        "longitude": "22.27"
    },
    {
        "fua_name": "Päijät-Häme",
        "latitude": "61.32",
        "longitude": "25.75"
    },
    {
        "fua_name": "Oulu",
        "latitude": "65.0121",
        "longitude": "25.4651"
    },
    {
        "fua_name": "Paris",
        "latitude": "48.8566",
        "longitude": "2.3522"
    },
    {
        "fua_name": "Reims",
        "latitude": "49.2583",
        "longitude": "4.0317"
    },
    {
        "fua_name": "Amiens",
        "latitude": "49.895",
        "longitude": "2.2901"
    },
    {
        "fua_name": "Rouen - Le Havre",
        "latitude": "49.44",
        "longitude": "1.1"
    },
    {
        "fua_name": "Tours",
        "latitude": "47.3941",
        "longitude": "0.6848"
    },
    {
        "fua_name": "Orléans",
        "latitude": "47.90296",
        "longitude": "1.90925"
    },
    {
        "fua_name": "Caen",
        "latitude": "49.1829",
        "longitude": "-0.3707"
    },
    {
        "fua_name": "Dijon",
        "latitude": "47.3216",
        "longitude": "5.0415"
    },
    {
        "fua_name": "Nevers",
        "latitude": "46.99",
        "longitude": "3.16"
    },
    {
        "fua_name": "Lille - Dunkerque - Valenciennes",
        "latitude": "50.6292",
        "longitude": "3.0573"
    },
    {
        "fua_name": "Nancy",
        "latitude": "48.6921",
        "longitude": "6.1844"
    },
    {
        "fua_name": "Metz",
        "latitude": "49.23",
        "longitude": "6.12"
    },
    {
        "fua_name": "Strasbourg",
        "latitude": "48.58",
        "longitude": "7.75"
    },
    {
        "fua_name": "Mulhouse",
        "latitude": "47.75",
        "longitude": "7.34"
    },
    {
        "fua_name": "Besancon",
        "latitude": "47.2488",
        "longitude": "6.0182"
    },
    {
        "fua_name": "Nantes",
        "latitude": "47.2181",
        "longitude": "-1.5528"
    },
    {
        "fua_name": "Angers",
        "latitude": "47.4784",
        "longitude": "-0.5632"
    },
    {
        "fua_name": "Le Mans",
        "latitude": "48.0073",
        "longitude": "0.1984"
    },
    {
        "fua_name": "Brest",
        "latitude": "48.39",
        "longitude": "-4.49"
    },
    {
        "fua_name": "Rennes",
        "latitude": "48.1173",
        "longitude": "-1.6778"
    },
    {
        "fua_name": "Poitiers",
        "latitude": "46.5803",
        "longitude": "0.3406"
    },
    {
        "fua_name": "Bordeaux",
        "latitude": "44.83",
        "longitude": "-0.57"
    },
    {
        "fua_name": "Pau",
        "latitude": "43.3",
        "longitude": "-0.37"
    },
    {
        "fua_name": "Toulouse",
        "latitude": "43.6043",
        "longitude": "1.4437"
    },
    {
        "fua_name": "Limoges",
        "latitude": "45.83",
        "longitude": "1.26"
    },
    {
        "fua_name": "Lyon",
        "latitude": "45.75",
        "longitude": "4.85"
    },
    {
        "fua_name": "Grenoble",
        "latitude": "45.17",
        "longitude": "5.72"
    },
    {
        "fua_name": "Saint-Etienne",
        "latitude": "45.43",
        "longitude": "4.39"
    },
    {
        "fua_name": "Annecy (FR)/Genève (CH)",
        "latitude": "46.2",
        "longitude": "6.17"
    },
    {
        "fua_name": "Clermont-Ferrand",
        "latitude": "45.77",
        "longitude": "3.08"
    },
    {
        "fua_name": "Nimes",
        "latitude": "43.83",
        "longitude": "4.36"
    },
    {
        "fua_name": "Montpellier",
        "latitude": "43.61",
        "longitude": "3.88"
    },
    {
        "fua_name": "Perpignan",
        "latitude": "42.6887",
        "longitude": "2.8948"
    },
    {
        "fua_name": "Nice",
        "latitude": "43.71",
        "longitude": "7.26"
    },
    {
        "fua_name": "Marseille-Aix",
        "latitude": "43.2965",
        "longitude": "5.3698"
    },
    {
        "fua_name": "Fort-de-France",
        "latitude": "14.61",
        "longitude": "-61.08"
    },
    {
        "fua_name": "Saint-Denis de la Reunion",
        "latitude": "-20.88",
        "longitude": "55.45"
    },
    {
        "fua_name": "Hong Kong, China",
        "latitude": "22.3193",
        "longitude": "114.1694"
    },
    {
        "fua_name": "Rijeka",
        "latitude": "45.33",
        "longitude": "14.45"
    },
    {
        "fua_name": "Split",
        "latitude": "43.5",
        "longitude": "16.44"
    },
    {
        "fua_name": "Grad Zagreb",
        "latitude": "45.81",
        "longitude": "15.98"
    },
    {
        "fua_name": "Budapest",
        "latitude": "47.4979",
        "longitude": "19.0402"
    },
    {
        "fua_name": "Székesfehérvár",
        "latitude": "47.1869",
        "longitude": "18.4221"
    },
    {
        "fua_name": "Gyor",
        "latitude": "47.68",
        "longitude": "17.63"
    },
    {
        "fua_name": "Pécs",
        "latitude": "46.0762",
        "longitude": "18.2281"
    },
    {
        "fua_name": "Miskolc",
        "latitude": "48.1",
        "longitude": "20.78"
    },
    {
        "fua_name": "Debrecen",
        "latitude": "47.53",
        "longitude": "21.63"
    },
    {
        "fua_name": "Nyiregyhaza",
        "latitude": "47.95",
        "longitude": "21.72"
    },
    {
        "fua_name": "Kecskemét",
        "latitude": "46.9062",
        "longitude": "19.6913"
    },
    {
        "fua_name": "IE011",
        "latitude": "53.35",
        "longitude": "-6.26"
    },
    {
        "fua_name": "Midlands",
        "latitude": "52.634",
        "longitude": "-1.6956"
    },
    {
        "fua_name": "Dublin",
        "latitude": "53.3498",
        "longitude": "-6.2603"
    },
    {
        "fua_name": "Cork",
        "latitude": "51.8985",
        "longitude": "-8.4756"
    },
    {
        "fua_name": "Jerusalem District",
        "latitude": "31.795924",
        "longitude": "35.21198"
    },
    {
        "fua_name": "Haifa District",
        "latitude": "32.794",
        "longitude": "34.9896"
    },
    {
        "fua_name": "Tel Aviv District",
        "latitude": "32.09",
        "longitude": "34.78"
    },
    {
        "fua_name": "Beersheba",
        "latitude": "31.25",
        "longitude": "34.79"
    },
    {
        "fua_name": "Delhi",
        "latitude": "28.61",
        "longitude": "77.23"
    },
    {
        "fua_name": "Jaipur",
        "latitude": "26.9221",
        "longitude": "75.7789"
    },
    {
        "fua_name": "Lucknow",
        "latitude": "26.8467",
        "longitude": "80.9462"
    },
    {
        "fua_name": "Kolkata",
        "latitude": "22.5726",
        "longitude": "88.3639"
    },
    {
        "fua_name": "Ahmedabad",
        "latitude": "23.0225",
        "longitude": "72.5714"
    },
    {
        "fua_name": "Mumbai",
        "latitude": "19.076",
        "longitude": "72.8777"
    },
    {
        "fua_name": "Raipur",
        "latitude": "21.25",
        "longitude": "81.63"
    },
    {
        "fua_name": "Hyderabad",
        "latitude": "17.38",
        "longitude": "78.48"
    },
    {
        "fua_name": "Bangalore",
        "latitude": "12.97",
        "longitude": "77.59"
    },
    {
        "fua_name": "Chennai",
        "latitude": "13.0827",
        "longitude": "80.2707"
    },
    {
        "fua_name": "Torino",
        "latitude": "45.07",
        "longitude": "7.68"
    },
    {
        "fua_name": "Genova",
        "latitude": "44.41",
        "longitude": "8.93"
    },
    {
        "fua_name": "Bergamo",
        "latitude": "45.69",
        "longitude": "9.67"
    },
    {
        "fua_name": "Brescia",
        "latitude": "45.54",
        "longitude": "10.21"
    },
    {
        "fua_name": "Milano",
        "latitude": "45.4642",
        "longitude": "9.19"
    },
    {
        "fua_name": "Pescara",
        "latitude": "42.4647",
        "longitude": "14.2133"
    },
    {
        "fua_name": "Napoli",
        "latitude": "40.85",
        "longitude": "14.27"
    },
    {
        "fua_name": "Salerno",
        "latitude": "40.68",
        "longitude": "14.76"
    },
    {
        "fua_name": "Taranto",
        "latitude": "40.4644",
        "longitude": "17.247"
    },
    {
        "fua_name": "Foggia",
        "latitude": "41.4622",
        "longitude": "15.5445"
    },
    {
        "fua_name": "Bari",
        "latitude": "41.12",
        "longitude": "16.85"
    },
    {
        "fua_name": "Reggio di Calabria",
        "latitude": "38.11",
        "longitude": "15.64"
    },
    {
        "fua_name": "Palermo",
        "latitude": "38.1157",
        "longitude": "13.3615"
    },
    {
        "fua_name": "Messina",
        "latitude": "38.37",
        "longitude": "15.55"
    },
    {
        "fua_name": "Catania",
        "latitude": "37.51",
        "longitude": "15.09"
    },
    {
        "fua_name": "Syracuse",
        "latitude": "43.0481",
        "longitude": "-76.1474"
    },
    {
        "fua_name": "Sassari",
        "latitude": "40.73",
        "longitude": "8.56"
    },
    {
        "fua_name": "Cagliari",
        "latitude": "39.22384",
        "longitude": "9.12166"
    },
    {
        "fua_name": "Trento",
        "latitude": "46.07",
        "longitude": "11.12"
    },
    {
        "fua_name": "Verona",
        "latitude": "45.44",
        "longitude": "10.99"
    },
    {
        "fua_name": "Vicenza",
        "latitude": "45.55",
        "longitude": "11.54"
    },
    {
        "fua_name": "Venezia",
        "latitude": "45.44",
        "longitude": "12.32"
    },
    {
        "fua_name": "Padova",
        "latitude": "45.4064",
        "longitude": "11.8768"
    },
    {
        "fua_name": "Trieste",
        "latitude": "45.65",
        "longitude": "13.77"
    },
    {
        "fua_name": "Parma",
        "latitude": "49.14",
        "longitude": "2.22"
    },
    {
        "fua_name": "Reggio nell'Emilia",
        "latitude": "44.7",
        "longitude": "10.63"
    },
    {
        "fua_name": "Modena",
        "latitude": "44.64",
        "longitude": "10.93"
    },
    {
        "fua_name": "Bologna",
        "latitude": "44.5",
        "longitude": "11.34"
    },
    {
        "fua_name": "Ferrara",
        "latitude": "44.83",
        "longitude": "11.62"
    },
    {
        "fua_name": "Ravenna",
        "latitude": "44.42",
        "longitude": "12.2"
    },
    {
        "fua_name": "Forli",
        "latitude": "44.22",
        "longitude": "12.04"
    },
    {
        "fua_name": "Rimini",
        "latitude": "44.06",
        "longitude": "12.57"
    },
    {
        "fua_name": "Firenze",
        "latitude": "43.7696",
        "longitude": "11.2558"
    },
    {
        "fua_name": "Prato",
        "latitude": "41.91",
        "longitude": "12.48"
    },
    {
        "fua_name": "Livorno",
        "latitude": "43.55",
        "longitude": "10.31"
    },
    {
        "fua_name": "Perugia",
        "latitude": "43.1107",
        "longitude": "12.3908"
    },
    {
        "fua_name": "Terni",
        "latitude": "42.56",
        "longitude": "12.64"
    },
    {
        "fua_name": "Ancona",
        "latitude": "43.6159",
        "longitude": "13.5189"
    },
    {
        "fua_name": "Latina",
        "latitude": "41.47",
        "longitude": "12.9"
    },
    {
        "fua_name": "Hokkaido",
        "latitude": "43.95",
        "longitude": "142.38"
    },
    {
        "fua_name": "Aomori",
        "latitude": "40.82444",
        "longitude": "140.74"
    },
    {
        "fua_name": "Iwate",
        "latitude": "39.7036",
        "longitude": "141.1527"
    },
    {
        "fua_name": "Miyagi",
        "latitude": "38.2682",
        "longitude": "140.8694"
    },
    {
        "fua_name": "Akita",
        "latitude": "39.72",
        "longitude": "140.13"
    },
    {
        "fua_name": "Yamagata",
        "latitude": "38.25",
        "longitude": "140.34"
    },
    {
        "fua_name": "Fukushima",
        "latitude": "37.75",
        "longitude": "140.47"
    },
    {
        "fua_name": "Ibaraki",
        "latitude": "36.34",
        "longitude": "140.45"
    },
    {
        "fua_name": "Tochigi",
        "latitude": "36.3811",
        "longitude": "139.7306"
    },
    {
        "fua_name": "Yamanashi",
        "latitude": "35.6642",
        "longitude": "138.5684"
    },
    {
        "fua_name": "Nagano",
        "latitude": "36.04",
        "longitude": "139.49"
    },
    {
        "fua_name": "Tokyo",
        "latitude": "35.68",
        "longitude": "139.65"
    },
    {
        "fua_name": "Niigata",
        "latitude": "37.92",
        "longitude": "139.04"
    },
    {
        "fua_name": "Toyama",
        "latitude": "36.7",
        "longitude": "137.21"
    },
    {
        "fua_name": "Ishikawa",
        "latitude": "36.5947",
        "longitude": "136.6256"
    },
    {
        "fua_name": "Fukui",
        "latitude": "36.06",
        "longitude": "136.22"
    },
    {
        "fua_name": "Gifu",
        "latitude": "35.42",
        "longitude": "136.76"
    },
    {
        "fua_name": "Shizuoka",
        "latitude": "34.97",
        "longitude": "138.38"
    },
    {
        "fua_name": "Aichi",
        "latitude": "35.18",
        "longitude": "136.91"
    },
    {
        "fua_name": "Mie",
        "latitude": "34.73",
        "longitude": "136.51"
    },
    {
        "fua_name": "Shiga",
        "latitude": "35.44",
        "longitude": "139.36"
    },
    {
        "fua_name": "Osaka",
        "latitude": "34.69",
        "longitude": "135.5"
    },
    {
        "fua_name": "Nara",
        "latitude": "26.4334",
        "longitude": "74.6412"
    },
    {
        "fua_name": "Wakayama",
        "latitude": "34.2305",
        "longitude": "135.1709"
    },
    {
        "fua_name": "Tottori",
        "latitude": "35.5",
        "longitude": "134.23"
    },
    {
        "fua_name": "Shimane",
        "latitude": "35.47",
        "longitude": "133.05"
    },
    {
        "fua_name": "Okayama",
        "latitude": "34.66",
        "longitude": "133.92"
    },
    {
        "fua_name": "Hiroshima",
        "latitude": "34.3966",
        "longitude": "132.4594"
    },
    {
        "fua_name": "Yamaguchi",
        "latitude": "34.185833",
        "longitude": "131.471389"
    },
    {
        "fua_name": "Tokushima",
        "latitude": "34.07",
        "longitude": "134.55"
    },
    {
        "fua_name": "Kagawa",
        "latitude": "34.34",
        "longitude": "134.0433"
    },
    {
        "fua_name": "Ehime",
        "latitude": "33.84",
        "longitude": "132.77"
    },
    {
        "fua_name": "Kochi",
        "latitude": "9.9312",
        "longitude": "76.2673"
    },
    {
        "fua_name": "Fukuoka",
        "latitude": "33.59",
        "longitude": "130.4"
    },
    {
        "fua_name": "Saga",
        "latitude": "21.8841",
        "longitude": "95.9625"
    },
    {
        "fua_name": "Nagasaki",
        "latitude": "32.75",
        "longitude": "129.88"
    },
    {
        "fua_name": "Kumamoto",
        "latitude": "32.79",
        "longitude": "130.74"
    },
    {
        "fua_name": "Miyazaki",
        "latitude": "31.91",
        "longitude": "131.42"
    },
    {
        "fua_name": "Kagoshima",
        "latitude": "31.56",
        "longitude": "130.55"
    },
    {
        "fua_name": "Okinawa",
        "latitude": "26.5013",
        "longitude": "127.9454"
    },
    {
        "fua_name": "Seoul",
        "latitude": "37.5665",
        "longitude": "126.978"
    },
    {
        "fua_name": "Incheon",
        "latitude": "37.45",
        "longitude": "126.7"
    },
    {
        "fua_name": "Busan",
        "latitude": "35.1796",
        "longitude": "129.0756"
    },
    {
        "fua_name": "Ulsan",
        "latitude": "35.53",
        "longitude": "129.32"
    },
    {
        "fua_name": "Gyeongsangnam-do",
        "latitude": "35.23",
        "longitude": "128.68"
    },
    {
        "fua_name": "Daegu",
        "latitude": "35.87",
        "longitude": "128.6"
    },
    {
        "fua_name": "Gyeongsangbuk-do",
        "latitude": "36.4919",
        "longitude": "128.8889"
    },
    {
        "fua_name": "Gwangju",
        "latitude": "35.16",
        "longitude": "126.85"
    },
    {
        "fua_name": "Jeollabuk-do",
        "latitude": "35.82",
        "longitude": "127.15"
    },
    {
        "fua_name": "Jeollanam-do",
        "latitude": "34.8161",
        "longitude": "126.4625"
    },
    {
        "fua_name": "Daejeon",
        "latitude": "36.35",
        "longitude": "127.38"
    },
    {
        "fua_name": "Chungcheongbuk-do",
        "latitude": "36.6359",
        "longitude": "127.4913"
    },
    {
        "fua_name": "Chungcheongnam-do",
        "latitude": "36.5184",
        "longitude": "126.8"
    },
    {
        "fua_name": "Gangwon-do",
        "latitude": "37.8228",
        "longitude": "128.1555"
    },
    {
        "fua_name": "Jeju-do",
        "latitude": "33.49",
        "longitude": "126.49"
    },
    {
        "fua_name": "Vaduz (Liechtenstein)",
        "latitude": "47.141",
        "longitude": "9.5209"
    },
    {
        "fua_name": "Kaunas",
        "latitude": "54.9",
        "longitude": "23.91"
    },
    {
        "fua_name": "Klaipeda",
        "latitude": "55.7",
        "longitude": "21.15"
    },
    {
        "fua_name": "Panevezys",
        "latitude": "55.74",
        "longitude": "24.36"
    },
    {
        "fua_name": "Siauliai",
        "latitude": "55.93",
        "longitude": "23.31"
    },
    {
        "fua_name": "Vilnius",
        "latitude": "54.68",
        "longitude": "25.32"
    },
    {
        "fua_name": "Luxembourg",
        "latitude": "49.6116",
        "longitude": "6.1319"
    },
    {
        "fua_name": "Daugavpils",
        "latitude": "55.88",
        "longitude": "26.53"
    },
    {
        "fua_name": "Riga",
        "latitude": "56.95",
        "longitude": "24.1"
    },
    {
        "fua_name": "Monaco",
        "latitude": "43.7384",
        "longitude": "7.4246"
    },
    {
        "fua_name": "Tijuana",
        "latitude": "32.52",
        "longitude": "-117.03"
    },
    {
        "fua_name": "Valley of Mexico",
        "latitude": "19.43",
        "longitude": "-99.13"
    },
    {
        "fua_name": "Guadalajara",
        "latitude": "20.66",
        "longitude": "-103.35"
    },
    {
        "fua_name": "Monterrey",
        "latitude": "25.6866",
        "longitude": "-100.3161"
    },
    {
        "fua_name": "Puebla",
        "latitude": "19.04",
        "longitude": "-98.2"
    },
    {
        "fua_name": "Kumanova",
        "latitude": "42.13",
        "longitude": "21.72"
    },
    {
        "fua_name": "Skopje",
        "latitude": "41.9973",
        "longitude": "21.428"
    },
    {
        "fua_name": "Macau",
        "latitude": "22.2",
        "longitude": "113.55"
    },
    {
        "fua_name": "Valletta",
        "latitude": "35.8989",
        "longitude": "14.5146"
    },
    {
        "fua_name": "Groningen",
        "latitude": "53.22",
        "longitude": "6.57"
    },
    {
        "fua_name": "Leeuwarden",
        "latitude": "53.2",
        "longitude": "5.8"
    },
    {
        "fua_name": "Emmen",
        "latitude": "52.78",
        "longitude": "6.91"
    },
    {
        "fua_name": "Zwolle",
        "latitude": "52.5168",
        "longitude": "6.083"
    },
    {
        "fua_name": "Enschede",
        "latitude": "52.22",
        "longitude": "6.89"
    },
    {
        "fua_name": "Veluwe",
        "latitude": "52.17",
        "longitude": "5.69"
    },
    {
        "fua_name": "Arnhem - Nijmegen",
        "latitude": "51.98",
        "longitude": "5.91"
    },
    {
        "fua_name": "Amsterdam",
        "latitude": "52.37",
        "longitude": "4.9"
    },
    {
        "fua_name": "Utrecht",
        "latitude": "52.08",
        "longitude": "5.13"
    },
    {
        "fua_name": "s' Gravenhage",
        "latitude": "52.07",
        "longitude": "4.3"
    },
    {
        "fua_name": "Leiden",
        "latitude": "52.16",
        "longitude": "4.49"
    },
    {
        "fua_name": "Dordrecht",
        "latitude": "51.81",
        "longitude": "4.67"
    },
    {
        "fua_name": "Rotterdam",
        "latitude": "51.9225",
        "longitude": "4.47917"
    },
    {
        "fua_name": "Breda",
        "latitude": "51.57",
        "longitude": "4.75"
    },
    {
        "fua_name": "Tilburg",
        "latitude": "51.56",
        "longitude": "5.08"
    },
    {
        "fua_name": "s Hertogenbosch",
        "latitude": "51.6978",
        "longitude": "5.3037"
    },
    {
        "fua_name": "Eindhoven",
        "latitude": "51.4416",
        "longitude": "5.4697"
    },
    {
        "fua_name": "Maastricht",
        "latitude": "50.85",
        "longitude": "5.69"
    },
    {
        "fua_name": "Oslo",
        "latitude": "59.91",
        "longitude": "10.75"
    },
    {
        "fua_name": "Stavanger",
        "latitude": "58.97",
        "longitude": "5.73"
    },
    {
        "fua_name": "Bergen",
        "latitude": "60.39",
        "longitude": "5.32"
    },
    {
        "fua_name": "Trondheim",
        "latitude": "63.43",
        "longitude": "10.4"
    },
    {
        "fua_name": "Auckland",
        "latitude": "-36.85",
        "longitude": "174.76"
    },
    {
        "fua_name": "Wellington",
        "latitude": "-41.2865",
        "longitude": "174.7762"
    },
    {
        "fua_name": "Christchurch",
        "latitude": "-43.53",
        "longitude": "172.64"
    },
    {
        "fua_name": "Lódz",
        "latitude": "51.7689",
        "longitude": "19.456"
    },
    {
        "fua_name": "Warszawa",
        "latitude": "52.2297",
        "longitude": "21.0122"
    },
    {
        "fua_name": "Radom",
        "latitude": "52.39",
        "longitude": "20.41"
    },
    {
        "fua_name": "Plock",
        "latitude": "52.5468",
        "longitude": "19.7064"
    },
    {
        "fua_name": "Kraków",
        "latitude": "50.0647",
        "longitude": "19.945"
    },
    {
        "fua_name": "Tarnów",
        "latitude": "50.57",
        "longitude": "18.83"
    },
    {
        "fua_name": "Czestochowa",
        "latitude": "50.81",
        "longitude": "19.12"
    },
    {
        "fua_name": "Bielsko-Biala",
        "latitude": "49.8225",
        "longitude": "19.0444"
    },
    {
        "fua_name": "Rybnik",
        "latitude": "50.09",
        "longitude": "18.54"
    },
    {
        "fua_name": "Katowice",
        "latitude": "50.2709",
        "longitude": "19.0394"
    },
    {
        "fua_name": "Lublin",
        "latitude": "51.25",
        "longitude": "22.57"
    },
    {
        "fua_name": "Rzeszów",
        "latitude": "50.03",
        "longitude": "22"
    },
    {
        "fua_name": "Kielce",
        "latitude": "50.8681",
        "longitude": "20.6339"
    },
    {
        "fua_name": "Bialystok",
        "latitude": "53.13",
        "longitude": "23.16"
    },
    {
        "fua_name": "Poznan",
        "latitude": "52.4064",
        "longitude": "16.9252"
    },
    {
        "fua_name": "Kalisz",
        "latitude": "51.76",
        "longitude": "18.08"
    },
    {
        "fua_name": "Szczecin",
        "latitude": "53.43",
        "longitude": "14.53"
    },
    {
        "fua_name": "Koszalin",
        "latitude": "54.1944",
        "longitude": "16.1724"
    },
    {
        "fua_name": "Gorzów Wielkopolski",
        "latitude": "52.73",
        "longitude": "15.24"
    },
    {
        "fua_name": "Zielona Gora",
        "latitude": "51.93548",
        "longitude": "15.50643"
    },
    {
        "fua_name": "Wroclaw",
        "latitude": "51.1079",
        "longitude": "17.0385"
    },
    {
        "fua_name": "Legnica",
        "latitude": "51.21",
        "longitude": "16.16"
    },
    {
        "fua_name": "Walbrzych",
        "latitude": "50.784",
        "longitude": "16.2845"
    },
    {
        "fua_name": "Wroclawek",
        "latitude": "52.6481",
        "longitude": "19.0678"
    },
    {
        "fua_name": "Opole",
        "latitude": "50.67",
        "longitude": "17.93"
    },
    {
        "fua_name": "Bydgoszcz - Torún",
        "latitude": "53.0138",
        "longitude": "18.5984"
    },
    {
        "fua_name": "Grudziadz",
        "latitude": "53.48",
        "longitude": "18.75"
    },
    {
        "fua_name": "Elblag",
        "latitude": "54.15",
        "longitude": "19.4"
    },
    {
        "fua_name": "Olsztyn",
        "latitude": "53.7799",
        "longitude": "20.4942"
    },
    {
        "fua_name": "Gdansk",
        "latitude": "54.36",
        "longitude": "18.64"
    },
    {
        "fua_name": "Slupsk",
        "latitude": "54.47",
        "longitude": "17.03"
    },
    {
        "fua_name": "Porto",
        "latitude": "41.1579",
        "longitude": "-8.6291"
    },
    {
        "fua_name": "Coimbra",
        "latitude": "40.2",
        "longitude": "-8.42"
    },
    {
        "fua_name": "Lisboa",
        "latitude": "38.72",
        "longitude": "-9.14"
    },
    {
        "fua_name": "Fuchal",
        "latitude": "24.9",
        "longitude": "121.16"
    },
    {
        "fua_name": "Oradea",
        "latitude": "47.0465",
        "longitude": "21.9189"
    },
    {
        "fua_name": "Cluj-Napoca",
        "latitude": "46.7667",
        "longitude": "23.6"
    },
    {
        "fua_name": "Satu Mare",
        "latitude": "47.79",
        "longitude": "22.88"
    },
    {
        "fua_name": "Brasov",
        "latitude": "45.66",
        "longitude": "25.61"
    },
    {
        "fua_name": "Tirgu Mures",
        "latitude": "46.54",
        "longitude": "24.55"
    },
    {
        "fua_name": "Sibiu",
        "latitude": "45.7983",
        "longitude": "24.1256"
    },
    {
        "fua_name": "Bacau",
        "latitude": "46.58",
        "longitude": "26.92"
    },
    {
        "fua_name": "Botosani",
        "latitude": "47.74",
        "longitude": "26.66"
    },
    {
        "fua_name": "Iasi",
        "latitude": "47.16",
        "longitude": "27.59"
    },
    {
        "fua_name": "Piatra Neamt",
        "latitude": "46.92",
        "longitude": "26.33"
    },
    {
        "fua_name": "Suceava",
        "latitude": "47.64",
        "longitude": "26.25"
    },
    {
        "fua_name": "Braila",
        "latitude": "46.231953",
        "longitude": "27.668333"
    },
    {
        "fua_name": "Buzau",
        "latitude": "45.15",
        "longitude": "26.83"
    },
    {
        "fua_name": "Constanta",
        "latitude": "36.365",
        "longitude": "6.6147"
    },
    {
        "fua_name": "Galati",
        "latitude": "45.43",
        "longitude": "28.03"
    },
    {
        "fua_name": "Focsani",
        "latitude": "45.7",
        "longitude": "27.18"
    },
    {
        "fua_name": "Pitesti",
        "latitude": "44.86",
        "longitude": "24.87"
    },
    {
        "fua_name": "Ploie?ti",
        "latitude": "44.94",
        "longitude": "26.03"
    },
    {
        "fua_name": "Bucuresti",
        "latitude": "44.43",
        "longitude": "26.1"
    },
    {
        "fua_name": "Craiova",
        "latitude": "44.31",
        "longitude": "23.8"
    },
    {
        "fua_name": "Drobeta Turnu Severin",
        "latitude": "44.62",
        "longitude": "22.66"
    },
    {
        "fua_name": "Riminicu Vilcea",
        "latitude": "44.4333",
        "longitude": "24.3667"
    },
    {
        "fua_name": "Arad",
        "latitude": "31.92",
        "longitude": "34.86"
    },
    {
        "fua_name": "Timisoara",
        "latitude": "45.75",
        "longitude": "21.23"
    },
    {
        "fua_name": "Moscow",
        "latitude": "55.75",
        "longitude": "37.62"
    },
    {
        "fua_name": "Kaliningrad",
        "latitude": "54.71",
        "longitude": "20.51"
    },
    {
        "fua_name": "Saint Petersburg",
        "latitude": "59.93",
        "longitude": "30.33"
    },
    {
        "fua_name": "Novosibirsk",
        "latitude": "55.0084",
        "longitude": "82.9357"
    },
    {
        "fua_name": "Stockholm",
        "latitude": "59.33",
        "longitude": "18.07"
    },
    {
        "fua_name": "Uppsala",
        "latitude": "59.86",
        "longitude": "17.64"
    },
    {
        "fua_name": "Vasteras",
        "latitude": "59.61",
        "longitude": "16.54"
    },
    {
        "fua_name": "Malmö",
        "latitude": "55.6",
        "longitude": "13"
    },
    {
        "fua_name": "Göteborg",
        "latitude": "57.7",
        "longitude": "11.97"
    },
    {
        "fua_name": "Singapore",
        "latitude": "1.35",
        "longitude": "103.82"
    },
    {
        "fua_name": "Maribor",
        "latitude": "46.56",
        "longitude": "15.64"
    },
    {
        "fua_name": "Ljubljana",
        "latitude": "46.0569",
        "longitude": "14.5058"
    },
    {
        "fua_name": "Bratislava",
        "latitude": "48.1486",
        "longitude": "17.1077"
    },
    {
        "fua_name": "KoÜice",
        "latitude": "48.72",
        "longitude": "21.25"
    },
    {
        "fua_name": "Istanbul",
        "latitude": "41.0082",
        "longitude": "28.9784"
    },
    {
        "fua_name": "Izmir",
        "latitude": "38.4192",
        "longitude": "27.1287"
    },
    {
        "fua_name": "Bursa",
        "latitude": "40.1828",
        "longitude": "29.0671"
    },
    {
        "fua_name": "Ankara",
        "latitude": "39.9334",
        "longitude": "32.8597"
    },
    {
        "fua_name": "Konya",
        "latitude": "37.87",
        "longitude": "32.48"
    },
    {
        "fua_name": "Antalya",
        "latitude": "36.9",
        "longitude": "30.69"
    },
    {
        "fua_name": "Adana",
        "latitude": "36.99",
        "longitude": "35.32"
    },
    {
        "fua_name": "Chinese Taipei",
        "latitude": "25.032969",
        "longitude": "121.565418"
    },
    {
        "fua_name": "Middlesbrough",
        "latitude": "54.5762",
        "longitude": "-1.2348"
    },
    {
        "fua_name": "Newcastle upon Tyne",
        "latitude": "54.9783",
        "longitude": "-1.6174"
    },
    {
        "fua_name": "Sunderland",
        "latitude": "54.9061",
        "longitude": "-1.3811"
    },
    {
        "fua_name": "Manchester",
        "latitude": "53.48",
        "longitude": "-2.24"
    },
    {
        "fua_name": "Blackburn - Blackpool - Preston",
        "latitude": "53.7649",
        "longitude": "-2.9781"
    },
    {
        "fua_name": "Liverpool",
        "latitude": "53.4084",
        "longitude": "-2.9916"
    },
    {
        "fua_name": "Cheshire West and Chester",
        "latitude": "53.2669",
        "longitude": "-2.6003"
    },
    {
        "fua_name": "Kingston upon Hull",
        "latitude": "53.74",
        "longitude": "-0.34"
    },
    {
        "fua_name": "York",
        "latitude": "53.96",
        "longitude": "-1.08"
    },
    {
        "fua_name": "Leeds",
        "latitude": "53.8",
        "longitude": "-1.5491"
    },
    {
        "fua_name": "Doncaster",
        "latitude": "53.5228",
        "longitude": "-1.1285"
    },
    {
        "fua_name": "Sheffield",
        "latitude": "53.38",
        "longitude": "-1.47"
    },
    {
        "fua_name": "Bradford",
        "latitude": "53.79",
        "longitude": "-1.75"
    },
    {
        "fua_name": "Kirklees",
        "latitude": "53.59",
        "longitude": "-1.83"
    },
    {
        "fua_name": "Derby",
        "latitude": "52.92",
        "longitude": "-1.48"
    },
    {
        "fua_name": "Nottingham",
        "latitude": "52.95",
        "longitude": "-1.15"
    },
    {
        "fua_name": "Leicester",
        "latitude": "52.63",
        "longitude": "-1.13"
    },
    {
        "fua_name": "Northampton",
        "latitude": "52.24",
        "longitude": "-0.9"
    },
    {
        "fua_name": "Worcestershire",
        "latitude": "52.192",
        "longitude": "-2.22"
    },
    {
        "fua_name": "Coventry",
        "latitude": "52.4068",
        "longitude": "-1.5197"
    },
    {
        "fua_name": "Stoke-on-Trent",
        "latitude": "53",
        "longitude": "-2.18"
    },
    {
        "fua_name": "West Midlands urban area",
        "latitude": "52.48",
        "longitude": "-1.89"
    },
    {
        "fua_name": "Peterborough",
        "latitude": "52.57",
        "longitude": "-0.24"
    },
    {
        "fua_name": "Cambridge",
        "latitude": "52.2053",
        "longitude": "0.1218"
    },
    {
        "fua_name": "Norwich",
        "latitude": "52.63",
        "longitude": "1.29"
    },
    {
        "fua_name": "Ipswich",
        "latitude": "52.0567",
        "longitude": "1.1482"
    },
    {
        "fua_name": "Luton",
        "latitude": "51.8787",
        "longitude": "-0.42"
    },
    {
        "fua_name": "London",
        "latitude": "51.5074",
        "longitude": "-0.1278"
    },
    {
        "fua_name": "Colchester",
        "latitude": "51.8959",
        "longitude": "0.8919"
    },
    {
        "fua_name": "Milton Keynes",
        "latitude": "52.04",
        "longitude": "-0.76"
    },
    {
        "fua_name": "Oxford",
        "latitude": "51.75",
        "longitude": "-1.26"
    },
    {
        "fua_name": "Brighton and Hove",
        "latitude": "50.82",
        "longitude": "-0.14"
    },
    {
        "fua_name": "East Sussex",
        "latitude": "50.92",
        "longitude": "0.46"
    },
    {
        "fua_name": "West Sussex",
        "latitude": "50.92",
        "longitude": "-0.46"
    },
    {
        "fua_name": "Portsmouth",
        "latitude": "50.8",
        "longitude": "-1.09"
    },
    {
        "fua_name": "Southampton",
        "latitude": "50.9097",
        "longitude": "-1.404351"
    },
    {
        "fua_name": "Isle of Wight",
        "latitude": "50.6938",
        "longitude": "-1.3046"
    },
    {
        "fua_name": "Medway",
        "latitude": "51.38",
        "longitude": "0.53"
    },
    {
        "fua_name": "Bristol",
        "latitude": "51.45",
        "longitude": "-2.58"
    },
    {
        "fua_name": "Gloucestershire",
        "latitude": "51.8642",
        "longitude": "-2.2381"
    },
    {
        "fua_name": "Swindon",
        "latitude": "51.55",
        "longitude": "-1.77"
    },
    {
        "fua_name": "Bournemouth",
        "latitude": "50.72",
        "longitude": "-1.88"
    },
    {
        "fua_name": "Plymouth",
        "latitude": "50.3755",
        "longitude": "-4.1427"
    },
    {
        "fua_name": "Exeter",
        "latitude": "50.72",
        "longitude": "-3.53"
    },
    {
        "fua_name": "Cardiff",
        "latitude": "51.4816",
        "longitude": "-3.1791"
    },
    {
        "fua_name": "Swansea",
        "latitude": "51.6214",
        "longitude": "-3.9436"
    },
    {
        "fua_name": "Newport",
        "latitude": "51.58",
        "longitude": "-2.99"
    },
    {
        "fua_name": "Dundee",
        "latitude": "56.46",
        "longitude": "-2.97"
    },
    {
        "fua_name": "Edinburgh",
        "latitude": "55.95",
        "longitude": "-3.18"
    },
    {
        "fua_name": "Glasgow",
        "latitude": "55.86",
        "longitude": "-4.25"
    },
    {
        "fua_name": "Aberdeen",
        "latitude": "57.1497",
        "longitude": "-2.0943"
    },
    {
        "fua_name": "Belfast",
        "latitude": "54.6",
        "longitude": "-5.93"
    },
    {
        "fua_name": "Montgomery-Alexander City - Al",
        "latitude": "32.38",
        "longitude": "-86.3"
    },
    {
        "fua_name": "Mobile-Daphne-Fairhope - Al",
        "latitude": "30.6954",
        "longitude": "-88.0399"
    },
    {
        "fua_name": "Dothan-Enterprise-Ozark - Al",
        "latitude": "31.2232",
        "longitude": "-85.3905"
    },
    {
        "fua_name": "Birmingham-Hoover-Cullman - Al",
        "latitude": "33.81",
        "longitude": "-86.8"
    },
    {
        "fua_name": "Atlanta-Sandy Springs-Gainesville - Ga-Al",
        "latitude": "33.75",
        "longitude": "-84.39"
    },
    {
        "fua_name": "Jackson-Yazoo City - Ms",
        "latitude": "32.65",
        "longitude": "-90.18"
    },
    {
        "fua_name": "Huntsville-Decatur - Al",
        "latitude": "34.73",
        "longitude": "-86.59"
    },
    {
        "fua_name": "Columbus-Auburn-Opelika - Ga-Al",
        "latitude": "32.46",
        "longitude": "-84.99"
    },
    {
        "fua_name": "Anchorage - Ak",
        "latitude": "61.21",
        "longitude": "-149.9"
    },
    {
        "fua_name": "Phoenix-Mesa-Scottsdale - Az",
        "latitude": "33.45",
        "longitude": "-112.07"
    },
    {
        "fua_name": "Tucson - Az",
        "latitude": "32.22",
        "longitude": "-110.93"
    },
    {
        "fua_name": "Flagstaff - Az",
        "latitude": "35.2",
        "longitude": "-111.65"
    },
    {
        "fua_name": "Los Angeles-Long Beach-Riverside - Ca",
        "latitude": "34.0522",
        "longitude": "-118.2437"
    },
    {
        "fua_name": "Las Vegas-Paradise-Pahrump - Nv",
        "latitude": "36.17",
        "longitude": "-115.14"
    },
    {
        "fua_name": "Little Rock-North Little Rock-Pine Bluff - Ar",
        "latitude": "34.7486",
        "longitude": "-92.2745"
    },
    {
        "fua_name": "Springfield - Mo",
        "latitude": "37.2",
        "longitude": "-93.29"
    },
    {
        "fua_name": "Fayetteville-Springdale-Rogers - Ar-Mo",
        "latitude": "36.1867",
        "longitude": "-94.1288"
    },
    {
        "fua_name": "Jonesboro - Ar",
        "latitude": "35.8423",
        "longitude": "-90.7043"
    },
    {
        "fua_name": "Fort Smith - Ar-Ok",
        "latitude": "35.3859",
        "longitude": "-94.3985"
    },
    {
        "fua_name": "Memphis - Tn-Ms-Ar",
        "latitude": "35.1495",
        "longitude": "-90.049"
    },
    {
        "fua_name": "Texarkana - Tx-Texarkana - Ar",
        "latitude": "33.44",
        "longitude": "-94.04"
    },
    {
        "fua_name": "San Jose-San Francisco-Oakland - Ca",
        "latitude": "37.77",
        "longitude": "-122.42"
    },
    {
        "fua_name": "Sacramento-Arden-Arcade-Truckee - Ca-Nv",
        "latitude": "38.58",
        "longitude": "-121.49"
    },
    {
        "fua_name": "Fresno-Madera - Ca",
        "latitude": "36.73",
        "longitude": "-119.78"
    },
    {
        "fua_name": "Reno-Sparks - Nv",
        "latitude": "39.53",
        "longitude": "-119.81"
    },
    {
        "fua_name": "Redding - Ca",
        "latitude": "40.58",
        "longitude": "-122.39"
    },
    {
        "fua_name": "San Diego-Carlsbad-San Marcos - Ca",
        "latitude": "32.7157",
        "longitude": "-117.1611"
    },
    {
        "fua_name": "Denver-Aurora-Boulder - Co",
        "latitude": "39.74",
        "longitude": "-104.98"
    },
    {
        "fua_name": "Farmington - Nm",
        "latitude": "36.7281",
        "longitude": "-108.2187"
    },
    {
        "fua_name": "Pueblo - Co",
        "latitude": "36.69",
        "longitude": "-4.45"
    },
    {
        "fua_name": "Colorado Springs - Co",
        "latitude": "38.8339",
        "longitude": "-104.8214"
    },
    {
        "fua_name": "New York-Newark-Bridgeport - Ny-Nj-Ct-Pa",
        "latitude": "40.71",
        "longitude": "-74.01"
    },
    {
        "fua_name": "Hartford-West Hartford-Willimantic - Ct",
        "latitude": "41.76",
        "longitude": "-72.67"
    },
    {
        "fua_name": "Dover - De",
        "latitude": "51.1279",
        "longitude": "1.3134"
    },
    {
        "fua_name": "Philadelphia-Camden-Vineland - Pa-Nj-De-Md",
        "latitude": "39.95",
        "longitude": "-75.16"
    },
    {
        "fua_name": "Washington-Baltimore-N.Virginia - Dc-Md-Va-Wv",
        "latitude": "39.29",
        "longitude": "-76.61"
    },
    {
        "fua_name": "Gainesville - Fl",
        "latitude": "29.65",
        "longitude": "-82.32"
    },
    {
        "fua_name": "Jacksonville - Fl",
        "latitude": "30.3322",
        "longitude": "-81.6556"
    },
    {
        "fua_name": "Panama City-Lynn Haven - Fl",
        "latitude": "30.1588",
        "longitude": "-85.6602"
    },
    {
        "fua_name": "Orlando-The Villages - Fl",
        "latitude": "28.5383",
        "longitude": "-81.3792"
    },
    {
        "fua_name": "Miami-Fort Lauderdale-Miami Beach - Fl",
        "latitude": "25.7617",
        "longitude": "-80.1918"
    },
    {
        "fua_name": "Sarasota-Bradenton-Venice - Fl",
        "latitude": "27.3364",
        "longitude": "-82.5307"
    },
    {
        "fua_name": "Pensacola-Ferry Pass-Brent - Fl",
        "latitude": "30.4213",
        "longitude": "-87.2169"
    },
    {
        "fua_name": "Tallahassee - Fl",
        "latitude": "30.44",
        "longitude": "-84.28"
    },
    {
        "fua_name": "Albany - Ga",
        "latitude": "42.65",
        "longitude": "-73.75"
    },
    {
        "fua_name": "Tampa-St. Petersburg-Clearwater - Fl",
        "latitude": "27.94",
        "longitude": "-82.46"
    },
    {
        "fua_name": "Macon-Warner Robins-Fort Valley - Ga",
        "latitude": "32.8407",
        "longitude": "-83.6324"
    },
    {
        "fua_name": "Savannah-Hinesville-Fort Stewart - Ga",
        "latitude": "32.08",
        "longitude": "-81.09"
    },
    {
        "fua_name": "Augusta-Richmond County - Ga-Sc",
        "latitude": "33.47",
        "longitude": "-81.97"
    },
    {
        "fua_name": "Honolulu - Hi",
        "latitude": "21.31",
        "longitude": "-157.86"
    },
    {
        "fua_name": "Boise City-Nampa - Id",
        "latitude": "43.62",
        "longitude": "-116.2"
    },
    {
        "fua_name": "Idaho Falls-Blackfoot - Id",
        "latitude": "43.4927",
        "longitude": "-112.0407"
    },
    {
        "fua_name": "Spokane - Wa",
        "latitude": "47.66",
        "longitude": "-117.43"
    },
    {
        "fua_name": "Twin Falls - Id",
        "latitude": "42.56",
        "longitude": "-114.46"
    },
    {
        "fua_name": "Lewiston - Id-Wa",
        "latitude": "46.39",
        "longitude": "-116.98"
    },
    {
        "fua_name": "Salt Lake City-Ogden-Clearfield - Ut",
        "latitude": "40.7608",
        "longitude": "-111.891"
    },
    {
        "fua_name": "Casper - Wy",
        "latitude": "42.8666",
        "longitude": "-106.3131"
    },
    {
        "fua_name": "Springfield - Il",
        "latitude": "39.78",
        "longitude": "-89.65"
    },
    {
        "fua_name": "Cape Girardeau-Jackson - Mo-Il",
        "latitude": "37.31",
        "longitude": "-89.56"
    },
    {
        "fua_name": "St. Louis-St. Charles-Farmington - Mo-Il",
        "latitude": "38.627",
        "longitude": "-90.1994"
    },
    {
        "fua_name": "Chicago-Naperville-Michigan City - Il-In-Wi",
        "latitude": "41.8781",
        "longitude": "-87.6298"
    },
    {
        "fua_name": "Champaign-Urbana - Il",
        "latitude": "40.11",
        "longitude": "-88.26"
    },
    {
        "fua_name": "Indianapolis-Anderson-Columbus - In",
        "latitude": "39.77",
        "longitude": "-86.16"
    },
    {
        "fua_name": "Peoria-Canton - Il",
        "latitude": "40.6936",
        "longitude": "-89.589"
    },
    {
        "fua_name": "Evansville - In-Ky",
        "latitude": "37.97",
        "longitude": "-87.56"
    },
    {
        "fua_name": "Davenport-Moline-Rock Island - Ia-Il",
        "latitude": "41.5236",
        "longitude": "-90.5776"
    },
    {
        "fua_name": "Madison-Baraboo - Wi",
        "latitude": "43.07",
        "longitude": "-89.4"
    },
    {
        "fua_name": "Paducah - Ky-Il",
        "latitude": "37.0834",
        "longitude": "-88.6"
    },
    {
        "fua_name": "Fort Wayne-Huntington-Auburn - In",
        "latitude": "41.0793",
        "longitude": "-85.1394"
    },
    {
        "fua_name": "Louisville-Elizabethtown-Scottsburg - Ky-In",
        "latitude": "38.25",
        "longitude": "-85.76"
    },
    {
        "fua_name": "Cincinnati-Middletown-Wilmington - Oh-Ky-In",
        "latitude": "39.13",
        "longitude": "-84.53"
    },
    {
        "fua_name": "South Bend-Mishawaka - In-Mi",
        "latitude": "41.68",
        "longitude": "-86.25"
    },
    {
        "fua_name": "Des Moines-Newton-Pella - Ia",
        "latitude": "41.5868",
        "longitude": "-93.625"
    },
    {
        "fua_name": "Omaha-Council Bluffs-Fremont - Ne-Ia",
        "latitude": "41.2565",
        "longitude": "-95.9345"
    },
    {
        "fua_name": "Cedar Rapids - Ia",
        "latitude": "41.97",
        "longitude": "-91.67"
    },
    {
        "fua_name": "Waterloo-Cedar Falls - Ia",
        "latitude": "42.4928",
        "longitude": "-92.3426"
    },
    {
        "fua_name": "Mason City - Ia",
        "latitude": "43.15",
        "longitude": "-93.2"
    },
    {
        "fua_name": "Sioux Falls - Sd",
        "latitude": "43.55",
        "longitude": "-96.7"
    },
    {
        "fua_name": "Sioux City-Vermillion - Ia-Ne-Sd",
        "latitude": "42.4963",
        "longitude": "-96.4049"
    },
    {
        "fua_name": "Joplin - Mo",
        "latitude": "37.08",
        "longitude": "-94.51"
    },
    {
        "fua_name": "Kansas City-Overland Park-Kansas City - Mo-Ks",
        "latitude": "39.09",
        "longitude": "-94.57"
    },
    {
        "fua_name": "Wichita-Winfield - Ks",
        "latitude": "37.6872",
        "longitude": "-97.3301"
    },
    {
        "fua_name": "Topeka - Ks",
        "latitude": "39.05",
        "longitude": "-95.68"
    },
    {
        "fua_name": "Salina - Ks",
        "latitude": "38.8403",
        "longitude": "-97.6114"
    },
    {
        "fua_name": "Oklahoma City-Shawnee - Ok",
        "latitude": "35.46",
        "longitude": "-97.51"
    },
    {
        "fua_name": "Nashville-Davidson-Murfreesboro-Columbia - Tn",
        "latitude": "36.17",
        "longitude": "-86.78"
    },
    {
        "fua_name": "Lexington-Fayette-Frankfort-Richmond - Ky",
        "latitude": "38.0507",
        "longitude": "-84.5008"
    },
    {
        "fua_name": "Knoxville-Sevierville-La Follette - Tn",
        "latitude": "35.96",
        "longitude": "-83.92"
    },
    {
        "fua_name": "Charleston - Wv",
        "latitude": "38.35",
        "longitude": "-81.63"
    },
    {
        "fua_name": "Lafayette-Acadiana - La",
        "latitude": "30.22",
        "longitude": "-92.02"
    },
    {
        "fua_name": "Lake Charles-Jennings - La",
        "latitude": "30.23",
        "longitude": "-93.2"
    },
    {
        "fua_name": "Baton Rouge-Pierre Part - La",
        "latitude": "30.4515",
        "longitude": "-91.1871"
    },
    {
        "fua_name": "Shreveport-Bossier City-Minden - La",
        "latitude": "32.5252",
        "longitude": "-93.7502"
    },
    {
        "fua_name": "Monroe-Bastrop - La",
        "latitude": "32.509311",
        "longitude": "-92.119301"
    },
    {
        "fua_name": "New Orleans-Metairie-Bogalusa - La",
        "latitude": "29.95",
        "longitude": "-90.07"
    },
    {
        "fua_name": "Portland-Lewiston-South Portland - Me",
        "latitude": "43.66",
        "longitude": "-70.25"
    },
    {
        "fua_name": "Bangor - Me",
        "latitude": "44.8",
        "longitude": "-68.77"
    },
    {
        "fua_name": "Boston-Worcester-Manchester - Ma-Nh",
        "latitude": "42.3601",
        "longitude": "-71.0589"
    },
    {
        "fua_name": "Albany-Schenectady-Amsterdam - Ny",
        "latitude": "42.65",
        "longitude": "-73.75"
    },
    {
        "fua_name": "Detroit-Warren-Flint - Mi",
        "latitude": "42.3314",
        "longitude": "-83.0458"
    },
    {
        "fua_name": "Marinette - Wi-Mi",
        "latitude": "45.1",
        "longitude": "-87.63"
    },
    {
        "fua_name": "Grand Rapids-Muskegon-Holland - Mi",
        "latitude": "42.965",
        "longitude": "-85.67"
    },
    {
        "fua_name": "Alpena - Mi",
        "latitude": "45.0617",
        "longitude": "-83.4328"
    },
    {
        "fua_name": "Traverse City - Mi",
        "latitude": "44.76",
        "longitude": "-85.62"
    },
    {
        "fua_name": "Wausau-Merrill - Wi",
        "latitude": "44.96",
        "longitude": "-89.63"
    },
    {
        "fua_name": "Minneapolis-St. Paul-St. Cloud - Mn-Wi",
        "latitude": "44.94",
        "longitude": "-93.2"
    },
    {
        "fua_name": "Duluth - Mn-Wi",
        "latitude": "46.77",
        "longitude": "-92.13"
    },
    {
        "fua_name": "Fargo-Wahpeton - Nd-Mn",
        "latitude": "46.8772",
        "longitude": "-96.7898"
    },
    {
        "fua_name": "La Crosse - Wi-Mn",
        "latitude": "43.8014",
        "longitude": "-91.2396"
    },
    {
        "fua_name": "Grand Forks - Nd-Mn",
        "latitude": "47.94",
        "longitude": "-97.43"
    },
    {
        "fua_name": "Tupelo - Ms",
        "latitude": "34.26",
        "longitude": "-88.7"
    },
    {
        "fua_name": "Gulfport-Biloxi-Pascagoula - Ms",
        "latitude": "30.3658",
        "longitude": "-88.5561"
    },
    {
        "fua_name": "Columbia - Mo",
        "latitude": "38.91",
        "longitude": "-92.33"
    },
    {
        "fua_name": "Helena - Mt",
        "latitude": "46.5884",
        "longitude": "-112.0245"
    },
    {
        "fua_name": "Billings - Mt",
        "latitude": "45.78",
        "longitude": "-108.5"
    },
    {
        "fua_name": "Great Falls - Mt",
        "latitude": "47.5",
        "longitude": "-111.29"
    },
    {
        "fua_name": "Missoula - Mt",
        "latitude": "46.87",
        "longitude": "-113.99"
    },
    {
        "fua_name": "Kearney - Ne",
        "latitude": "40.7",
        "longitude": "-99.08"
    },
    {
        "fua_name": "Scotts Bluff - Ne",
        "latitude": "41.8715",
        "longitude": "-103.6674"
    },
    {
        "fua_name": "Rapid City - Sd",
        "latitude": "44.08",
        "longitude": "-103.23"
    },
    {
        "fua_name": "Lincoln - Ne",
        "latitude": "40.8",
        "longitude": "-96.67"
    },
    {
        "fua_name": "Albuquerque - Nm",
        "latitude": "35.08",
        "longitude": "-106.65"
    },
    {
        "fua_name": "Midland-Odessa - Tx",
        "latitude": "31.92",
        "longitude": "-102.27"
    },
    {
        "fua_name": "Amarillo - Tx",
        "latitude": "35.22",
        "longitude": "-101.83"
    },
    {
        "fua_name": "El Paso - Tx",
        "latitude": "31.76",
        "longitude": "-106.48"
    },
    {
        "fua_name": "Santa Fe-Espanola - Nm",
        "latitude": "35.68",
        "longitude": "-105.94"
    },
    {
        "fua_name": "Buffalo-Niagara-Cattaraugus - Ny",
        "latitude": "42.89",
        "longitude": "-78.88"
    },
    {
        "fua_name": "Syracuse-Auburn - Ny",
        "latitude": "43.05",
        "longitude": "-76.15"
    },
    {
        "fua_name": "Rochester-Batavia-Seneca Falls - Ny",
        "latitude": "43.16",
        "longitude": "-77.61"
    },
    {
        "fua_name": "Greensboro-Winston-Salem-High Point - Nc",
        "latitude": "36.0726",
        "longitude": "-79.792"
    },
    {
        "fua_name": "Charlotte-Gastonia-Salisbury - Nc-Sc",
        "latitude": "35.22",
        "longitude": "-80.84"
    },
    {
        "fua_name": "Asheville-Brevard - Nc",
        "latitude": "35.58",
        "longitude": "-82.55"
    },
    {
        "fua_name": "Greenville - Nc",
        "latitude": "35.61",
        "longitude": "-77.37"
    },
    {
        "fua_name": "Virginia Beach-Norfolk-Newport News - Va-Nc",
        "latitude": "36.85",
        "longitude": "-75.98"
    },
    {
        "fua_name": "Raleigh-Durham-Cary - Nc",
        "latitude": "35.78",
        "longitude": "-78.64"
    },
    {
        "fua_name": "Myrtle Beach-Conway-Georgetown - Sc",
        "latitude": "33.6956",
        "longitude": "-78.89"
    },
    {
        "fua_name": "Greenville-Spartanburg-Anderson - Sc",
        "latitude": "34.8526",
        "longitude": "-82.394"
    },
    {
        "fua_name": "Aberdeen - Sd",
        "latitude": "57.15",
        "longitude": "-2.11"
    },
    {
        "fua_name": "Bismarck - Nd",
        "latitude": "46.8083",
        "longitude": "-100.7837"
    },
    {
        "fua_name": "Minot - Nd",
        "latitude": "48.2325",
        "longitude": "-101.2963"
    },
    {
        "fua_name": "Dayton-Springfield-Greenville - Oh",
        "latitude": "39.7589",
        "longitude": "-84.1916"
    },
    {
        "fua_name": "Cleveland-Akron-Elyria - Oh",
        "latitude": "41.5",
        "longitude": "-81.69"
    },
    {
        "fua_name": "Columbus-Marion-Chillicothe - Oh",
        "latitude": "39.9612",
        "longitude": "-82.9988"
    },
    {
        "fua_name": "Pittsburgh-New Castle - Pa",
        "latitude": "40.4406",
        "longitude": "-79.9959"
    },
    {
        "fua_name": "Toledo-Fremont - Oh",
        "latitude": "41.65",
        "longitude": "-83.54"
    },
    {
        "fua_name": "Dallas-Fort Worth - Tx",
        "latitude": "32.7767",
        "longitude": "-96.797"
    },
    {
        "fua_name": "Tulsa-Bartlesville - Ok",
        "latitude": "36.154",
        "longitude": "-95.9928"
    },
    {
        "fua_name": "Pendleton-Hermiston - Or",
        "latitude": "45.67",
        "longitude": "-118.79"
    },
    {
        "fua_name": "Portland-Vancouver-Beaverton - Or-Wa",
        "latitude": "45.52",
        "longitude": "-122.68"
    },
    {
        "fua_name": "Eugene-Springfield - Or",
        "latitude": "44.0521",
        "longitude": "-123.0868"
    },
    {
        "fua_name": "Bend-Prineville - Or",
        "latitude": "44.06",
        "longitude": "-121.31"
    },
    {
        "fua_name": "Harrisburg-Carlisle-Lebanon - Pa",
        "latitude": "40.2599",
        "longitude": "-76.8822"
    },
    {
        "fua_name": "State College - Pa",
        "latitude": "40.79",
        "longitude": "-77.86"
    },
    {
        "fua_name": "Erie - Pa",
        "latitude": "42.1292",
        "longitude": "-80.0851"
    },
    {
        "fua_name": "Scranton--Wilkes-Barre - Pa",
        "latitude": "41.41",
        "longitude": "-75.66"
    },
    {
        "fua_name": "Columbia-Newberry - Sc",
        "latitude": "34",
        "longitude": "-81.03"
    },
    {
        "fua_name": "Charleston-North Charleston - Sc",
        "latitude": "32.78",
        "longitude": "-79.93"
    },
    {
        "fua_name": "Johnson City-Kingsport-Bristol - Tn-Va",
        "latitude": "36.34",
        "longitude": "-82.37"
    },
    {
        "fua_name": "Houston-Baytown-Huntsville - Tx",
        "latitude": "29.76",
        "longitude": "-95.37"
    },
    {
        "fua_name": "Corpus Christi-Kingsville - Tx",
        "latitude": "27.8006",
        "longitude": "-97.3964"
    },
    {
        "fua_name": "Wichita Falls - Tx",
        "latitude": "33.9137",
        "longitude": "-98.4934"
    },
    {
        "fua_name": "San Antonio - Tx",
        "latitude": "29.4241",
        "longitude": "-98.4936"
    },
    {
        "fua_name": "Austin-Round Rock - Tx",
        "latitude": "30.5083",
        "longitude": "-97.6789"
    },
    {
        "fua_name": "Killeen-Temple-Fort Hood - Tx",
        "latitude": "31.1171",
        "longitude": "-97.7278"
    },
    {
        "fua_name": "Lubbock-Levelland - Tx",
        "latitude": "33.58",
        "longitude": "-101.85"
    },
    {
        "fua_name": "Abilene - Tx",
        "latitude": "32.4487",
        "longitude": "-99.7331"
    },
    {
        "fua_name": "Mcallen-Edinburg-Pharr - Tx",
        "latitude": "26.2",
        "longitude": "-98.23"
    },
    {
        "fua_name": "San Angelo - Tx",
        "latitude": "31.46",
        "longitude": "-100.44"
    },
    {
        "fua_name": "Beaumont-Port Arthur - Tx",
        "latitude": "30.08",
        "longitude": "-94.13"
    },
    {
        "fua_name": "Burlington-South Burlington - Vt",
        "latitude": "44.4763",
        "longitude": "-73.2213"
    },
    {
        "fua_name": "Richmond - Va",
        "latitude": "37.54",
        "longitude": "-77.43"
    },
    {
        "fua_name": "Roanoke - Va",
        "latitude": "37.27",
        "longitude": "-79.94"
    },
    {
        "fua_name": "Harrisonburg - Va",
        "latitude": "38.44",
        "longitude": "-78.87"
    },
    {
        "fua_name": "Wenatchee - Wa",
        "latitude": "47.4235",
        "longitude": "-120.3103"
    },
    {
        "fua_name": "Kennewick-Richland-Pasco - Wa",
        "latitude": "46.2112",
        "longitude": "-119.1372"
    },
    {
        "fua_name": "Seattle-Tacoma-Olympia - Wa",
        "latitude": "47.61",
        "longitude": "-122.33"
    },
    {
        "fua_name": "Clarksburg - Wv + Morgantown - Wv",
        "latitude": "39.63",
        "longitude": "-79.96"
    },
    {
        "fua_name": "Appleton-Oshkosh-Neenah - Wi",
        "latitude": "44.2611",
        "longitude": "-88.4068"
    },
    {
        "fua_name": "Milwaukee-Racine-Waukesha - Wi",
        "latitude": "43.0389",
        "longitude": "-87.9065"
    },
    {
        "fua_name": "Johannesburg",
        "latitude": "-26.2",
        "longitude": "28.04"
    },
    {
        "fua_name": "Durban",
        "latitude": "-29.85",
        "longitude": "31.02"
    },
    {
        "fua_name": "Cape Town",
        "latitude": "-33.9249",
        "longitude": "18.4241"
    }
]