{"type":"Topology","arcs":[],"objects":{"NUTS_LB_2010_4326":{"type":"GeometryCollection","geometries":[{"type":"Point","coordinates":[26.1105,41.1118],"properties":{"NUTS_ID":"EL111","LEVL_CODE":3,"CNTR_CODE":"EL","NUTS_NAME":"Έβρος","NAME_LATN":"Evros","FID":"EL111"},"id":"EL111"},{"type":"Point","coordinates":[24.8227,41.1694],"properties":{"NUTS_ID":"EL112","LEVL_CODE":3,"CNTR_CODE":"EL","NUTS_NAME":"Ξάνθη","NAME_LATN":"Xanthi","FID":"EL112"},"id":"EL112"},{"type":"Point","coordinates":[25.5004,41.1068],"properties":{"NUTS_ID":"EL113","LEVL_CODE":3,"CNTR_CODE":"EL","NUTS_NAME":"Ροδόπη","NAME_LATN":"Rodopi","FID":"EL113"},"id":"EL113"},{"type":"Point","coordinates":[24.1851,41.287],"properties":{"NUTS_ID":"EL114","LEVL_CODE":3,"CNTR_CODE":"EL","NUTS_NAME":"Δράμα","NAME_LATN":"Drama","FID":"EL114"},"id":"EL114"},{"type":"Point","coordinates":[24.3595,40.9739],"properties":{"NUTS_ID":"EL115","LEVL_CODE":3,"CNTR_CODE":"EL","NUTS_NAME":"Καβάλα","NAME_LATN":"Kavala","FID":"EL115"},"id":"EL115"},{"type":"Point","coordinates":[22.2663,40.4953],"properties":{"NUTS_ID":"EL121","LEVL_CODE":3,"CNTR_CODE":"EL","NUTS_NAME":"Ημαθία","NAME_LATN":"Imathia","FID":"EL121"},"id":"EL121"},{"type":"Point","coordinates":[23.1233,40.7059],"properties":{"NUTS_ID":"EL122","LEVL_CODE":3,"CNTR_CODE":"EL","NUTS_NAME":"Θεσσαλονίκη","NAME_LATN":"Thessaloniki","FID":"EL122"},"id":"EL122"},{"type":"Point","coordinates":[22.7622,41.0653],"properties":{"NUTS_ID":"EL123","LEVL_CODE":3,"CNTR_CODE":"EL","NUTS_NAME":"Κιλκίς","NAME_LATN":"Kilkis","FID":"EL123"},"id":"EL123"},{"type":"Point","coordinates":[22.193,40.9344],"properties":{"NUTS_ID":"EL124","LEVL_CODE":3,"CNTR_CODE":"EL","NUTS_NAME":"Πέλλα","NAME_LATN":"Pella","FID":"EL124"},"id":"EL124"},{"type":"Point","coordinates":[22.4315,40.2831],"properties":{"NUTS_ID":"EL125","LEVL_CODE":3,"CNTR_CODE":"EL","NUTS_NAME":"Πιερία","NAME_LATN":"Pieria","FID":"EL125"},"id":"EL125"},{"type":"Point","coordinates":[23.4922,41.125],"properties":{"NUTS_ID":"EL126","LEVL_CODE":3,"CNTR_CODE":"EL","NUTS_NAME":"Σέρρες","NAME_LATN":"Serres","FID":"EL126"},"id":"EL126"},{"type":"Point","coordinates":[23.5655,40.4185],"properties":{"NUTS_ID":"EL127","LEVL_CODE":3,"CNTR_CODE":"EL","NUTS_NAME":"Χαλκιδική","NAME_LATN":"Chalkidiki","FID":"EL127"},"id":"EL127"},{"type":"Point","coordinates":[21.4337,40.0247],"properties":{"NUTS_ID":"EL131","LEVL_CODE":3,"CNTR_CODE":"EL","NUTS_NAME":"Γρεβενά","NAME_LATN":"Grevena","FID":"EL131"},"id":"EL131"},{"type":"Point","coordinates":[21.1559,40.4938],"properties":{"NUTS_ID":"EL132","LEVL_CODE":3,"CNTR_CODE":"EL","NUTS_NAME":"Καστοριά","NAME_LATN":"Kastoria","FID":"EL132"},"id":"EL132"},{"type":"Point","coordinates":[21.6488,40.3809],"properties":{"NUTS_ID":"EL133","LEVL_CODE":3,"CNTR_CODE":"EL","NUTS_NAME":"Κοζάνη","NAME_LATN":"Kozani","FID":"EL133"},"id":"EL133"},{"type":"Point","coordinates":[21.3997,40.7937],"properties":{"NUTS_ID":"EL134","LEVL_CODE":3,"CNTR_CODE":"EL","NUTS_NAME":"Φλώρινα","NAME_LATN":"Florina","FID":"EL134"},"id":"EL134"},{"type":"Point","coordinates":[21.8151,39.3086],"properties":{"NUTS_ID":"EL141","LEVL_CODE":3,"CNTR_CODE":"EL","NUTS_NAME":"Καρδίτσα","NAME_LATN":"Karditsa","FID":"EL141"},"id":"EL141"},{"type":"Point","coordinates":[22.3628,39.634],"properties":{"NUTS_ID":"EL142","LEVL_CODE":3,"CNTR_CODE":"EL","NUTS_NAME":"Λάρισα","NAME_LATN":"Larisa","FID":"EL142"},"id":"EL142"},{"type":"Point","coordinates":[22.8224,39.3651],"properties":{"NUTS_ID":"EL143","LEVL_CODE":3,"CNTR_CODE":"EL","NUTS_NAME":"Μαγνησία","NAME_LATN":"Magnisia","FID":"EL143"},"id":"EL143"},{"type":"Point","coordinates":[21.6736,39.6478],"properties":{"NUTS_ID":"EL144","LEVL_CODE":3,"CNTR_CODE":"EL","NUTS_NAME":"Τρίκαλα","NAME_LATN":"Trikala","FID":"EL144"},"id":"EL144"},{"type":"Point","coordinates":[21.113,39.2535],"properties":{"NUTS_ID":"EL211","LEVL_CODE":3,"CNTR_CODE":"EL","NUTS_NAME":"Άρτα","NAME_LATN":"Arta","FID":"EL211"},"id":"EL211"},{"type":"Point","coordinates":[20.3575,39.5629],"properties":{"NUTS_ID":"EL212","LEVL_CODE":3,"CNTR_CODE":"EL","NUTS_NAME":"Θεσπρωτία","NAME_LATN":"Thesprotia","FID":"EL212"},"id":"EL212"},{"type":"Point","coordinates":[20.808,39.8117],"properties":{"NUTS_ID":"EL213","LEVL_CODE":3,"CNTR_CODE":"EL","NUTS_NAME":"Ιωάννινα","NAME_LATN":"Ioannina","FID":"EL213"},"id":"EL213"},{"type":"Point","coordinates":[20.7166,39.2224],"properties":{"NUTS_ID":"EL214","LEVL_CODE":3,"CNTR_CODE":"EL","NUTS_NAME":"Πρέβεζα","NAME_LATN":"Preveza","FID":"EL214"},"id":"EL214"},{"type":"Point","coordinates":[20.8015,37.756],"properties":{"NUTS_ID":"EL221","LEVL_CODE":3,"CNTR_CODE":"EL","NUTS_NAME":"Ζάκυνθος","NAME_LATN":"Zakynthos","FID":"EL221"},"id":"EL221"},{"type":"Point","coordinates":[19.8749,39.5557],"properties":{"NUTS_ID":"EL222","LEVL_CODE":3,"CNTR_CODE":"EL","NUTS_NAME":"Κέρκυρα","NAME_LATN":"Kerkyra","FID":"EL222"},"id":"EL222"},{"type":"Point","coordinates":[20.5965,38.1941],"properties":{"NUTS_ID":"EL223","LEVL_CODE":3,"CNTR_CODE":"EL","NUTS_NAME":"Κεφαλληνία","NAME_LATN":"Kefallinia","FID":"EL223"},"id":"EL223"},{"type":"Point","coordinates":[20.6502,38.7172],"properties":{"NUTS_ID":"EL224","LEVL_CODE":3,"CNTR_CODE":"EL","NUTS_NAME":"Λευκάδα","NAME_LATN":"Lefkada","FID":"EL224"},"id":"EL224"},{"type":"Point","coordinates":[21.3234,38.7366],"properties":{"NUTS_ID":"EL231","LEVL_CODE":3,"CNTR_CODE":"EL","NUTS_NAME":"Αιτωλοακαρνανία","NAME_LATN":"Aitoloakarnania","FID":"EL231"},"id":"EL231"},{"type":"Point","coordinates":[21.8685,38.1185],"properties":{"NUTS_ID":"EL232","LEVL_CODE":3,"CNTR_CODE":"EL","NUTS_NAME":"Αχαΐα","NAME_LATN":"Achaia","FID":"EL232"},"id":"EL232"},{"type":"Point","coordinates":[21.5621,37.7345],"properties":{"NUTS_ID":"EL233","LEVL_CODE":3,"CNTR_CODE":"EL","NUTS_NAME":"Ηλεία","NAME_LATN":"Ileia","FID":"EL233"},"id":"EL233"},{"type":"Point","coordinates":[23.0888,38.3698],"properties":{"NUTS_ID":"EL241","LEVL_CODE":3,"CNTR_CODE":"EL","NUTS_NAME":"Βοιωτία","NAME_LATN":"Voiotia","FID":"EL241"},"id":"EL241"},{"type":"Point","coordinates":[23.7377,38.5565],"properties":{"NUTS_ID":"EL242","LEVL_CODE":3,"CNTR_CODE":"EL","NUTS_NAME":"Εύβοια","NAME_LATN":"Evvoia","FID":"EL242"},"id":"EL242"},{"type":"Point","coordinates":[21.6706,38.9507],"properties":{"NUTS_ID":"EL243","LEVL_CODE":3,"CNTR_CODE":"EL","NUTS_NAME":"Ευρυτανία","NAME_LATN":"Evrytania","FID":"EL243"},"id":"EL243"},{"type":"Point","coordinates":[22.5966,38.7002],"properties":{"NUTS_ID":"EL244","LEVL_CODE":3,"CNTR_CODE":"EL","NUTS_NAME":"Φθιώτιδα","NAME_LATN":"Fthiotida","FID":"EL244"},"id":"EL244"},{"type":"Point","coordinates":[22.2666,38.5451],"properties":{"NUTS_ID":"EL245","LEVL_CODE":3,"CNTR_CODE":"EL","NUTS_NAME":"Φωκίδα","NAME_LATN":"Fokida","FID":"EL245"},"id":"EL245"},{"type":"Point","coordinates":[22.8668,37.5975],"properties":{"NUTS_ID":"EL251","LEVL_CODE":3,"CNTR_CODE":"EL","NUTS_NAME":"Αργολίδα","NAME_LATN":"Argolida","FID":"EL251"},"id":"EL251"},{"type":"Point","coordinates":[22.3973,37.4538],"properties":{"NUTS_ID":"EL252","LEVL_CODE":3,"CNTR_CODE":"EL","NUTS_NAME":"Αρκαδία","NAME_LATN":"Arkadia","FID":"EL252"},"id":"EL252"},{"type":"Point","coordinates":[22.7112,37.8972],"properties":{"NUTS_ID":"EL253","LEVL_CODE":3,"CNTR_CODE":"EL","NUTS_NAME":"Κορινθία","NAME_LATN":"Korinthia","FID":"EL253"},"id":"EL253"},{"type":"Point","coordinates":[22.7269,36.9318],"properties":{"NUTS_ID":"EL254","LEVL_CODE":3,"CNTR_CODE":"EL","NUTS_NAME":"Λακωνία","NAME_LATN":"Lakonia","FID":"EL254"},"id":"EL254"},{"type":"Point","coordinates":[21.9291,37.0843],"properties":{"NUTS_ID":"EL255","LEVL_CODE":3,"CNTR_CODE":"EL","NUTS_NAME":"Μεσσηνία","NAME_LATN":"Messinia","FID":"EL255"},"id":"EL255"},{"type":"Point","coordinates":[23.7816,38.0587],"properties":{"NUTS_ID":"EL300","LEVL_CODE":3,"CNTR_CODE":"EL","NUTS_NAME":"Aττική","NAME_LATN":"Attiki","FID":"EL300"},"id":"EL300"},{"type":"Point","coordinates":[26.354,39.1046],"properties":{"NUTS_ID":"EL411","LEVL_CODE":3,"CNTR_CODE":"EL","NUTS_NAME":"Λέσβος","NAME_LATN":"Lesvos","FID":"EL411"},"id":"EL411"},{"type":"Point","coordinates":[26.8181,37.7234],"properties":{"NUTS_ID":"EL412","LEVL_CODE":3,"CNTR_CODE":"EL","NUTS_NAME":"Σάμος","NAME_LATN":"Samos","FID":"EL412"},"id":"EL412"},{"type":"Point","coordinates":[26.063,38.349],"properties":{"NUTS_ID":"EL413","LEVL_CODE":3,"CNTR_CODE":"EL","NUTS_NAME":"Χίος","NAME_LATN":"Chios","FID":"EL413"},"id":"EL413"},{"type":"Point","coordinates":[27.9374,36.1636],"properties":{"NUTS_ID":"EL421","LEVL_CODE":3,"CNTR_CODE":"EL","NUTS_NAME":"Δωδεκάνησος","NAME_LATN":"Dodekanisos","FID":"EL421"},"id":"EL421"},{"type":"Point","coordinates":[25.1553,35.1374],"properties":{"NUTS_ID":"EL431","LEVL_CODE":3,"CNTR_CODE":"EL","NUTS_NAME":"Ηράκλειο","NAME_LATN":"Irakleio","FID":"EL431"},"id":"EL431"},{"type":"Point","coordinates":[25.838,35.0822],"properties":{"NUTS_ID":"EL432","LEVL_CODE":3,"CNTR_CODE":"EL","NUTS_NAME":"Λασίθι","NAME_LATN":"Lasithi","FID":"EL432"},"id":"EL432"},{"type":"Point","coordinates":[24.6264,35.2656],"properties":{"NUTS_ID":"EL433","LEVL_CODE":3,"CNTR_CODE":"EL","NUTS_NAME":"Ρεθύμνη","NAME_LATN":"Rethymni","FID":"EL433"},"id":"EL433"},{"type":"Point","coordinates":[23.9361,35.3714],"properties":{"NUTS_ID":"EL434","LEVL_CODE":3,"CNTR_CODE":"EL","NUTS_NAME":"Χανιά","NAME_LATN":"Chania","FID":"EL434"},"id":"EL434"},{"type":"Point","coordinates":[16.4835,47.513],"properties":{"NUTS_ID":"AT111","LEVL_CODE":3,"CNTR_CODE":"AT","NUTS_NAME":"Mittelburgenland","NAME_LATN":"Mittelburgenland","FID":"AT111"},"id":"AT111"},{"type":"Point","coordinates":[16.7103,47.8742],"properties":{"NUTS_ID":"AT112","LEVL_CODE":3,"CNTR_CODE":"AT","NUTS_NAME":"Nordburgenland","NAME_LATN":"Nordburgenland","FID":"AT112"},"id":"AT112"},{"type":"Point","coordinates":[16.2662,47.1906],"properties":{"NUTS_ID":"AT113","LEVL_CODE":3,"CNTR_CODE":"AT","NUTS_NAME":"Südburgenland","NAME_LATN":"Südburgenland","FID":"AT113"},"id":"AT113"},{"type":"Point","coordinates":[14.9799,48.0496],"properties":{"NUTS_ID":"AT121","LEVL_CODE":3,"CNTR_CODE":"AT","NUTS_NAME":"Mostviertel-Eisenwurzen","NAME_LATN":"Mostviertel-Eisenwurzen","FID":"AT121"},"id":"AT121"},{"type":"Point","coordinates":[15.7809,47.8557],"properties":{"NUTS_ID":"AT122","LEVL_CODE":3,"CNTR_CODE":"AT","NUTS_NAME":"Niederösterreich-Süd","NAME_LATN":"Niederösterreich-Süd","FID":"AT122"},"id":"AT122"},{"type":"Point","coordinates":[15.6509,48.2101],"properties":{"NUTS_ID":"AT123","LEVL_CODE":3,"CNTR_CODE":"AT","NUTS_NAME":"Sankt Pölten","NAME_LATN":"Sankt Pölten","FID":"AT123"},"id":"AT123"},{"type":"Point","coordinates":[15.3197,48.6701],"properties":{"NUTS_ID":"AT124","LEVL_CODE":3,"CNTR_CODE":"AT","NUTS_NAME":"Waldviertel","NAME_LATN":"Waldviertel","FID":"AT124"},"id":"AT124"},{"type":"Point","coordinates":[16.342,48.6627],"properties":{"NUTS_ID":"AT125","LEVL_CODE":3,"CNTR_CODE":"AT","NUTS_NAME":"Weinviertel","NAME_LATN":"Weinviertel","FID":"AT125"},"id":"AT125"},{"type":"Point","coordinates":[16.3624,48.4167],"properties":{"NUTS_ID":"AT126","LEVL_CODE":3,"CNTR_CODE":"AT","NUTS_NAME":"Wiener Umland/Nordteil","NAME_LATN":"Wiener Umland/Nordteil","FID":"AT126"},"id":"AT126"},{"type":"Point","coordinates":[16.482,48.0482],"properties":{"NUTS_ID":"AT127","LEVL_CODE":3,"CNTR_CODE":"AT","NUTS_NAME":"Wiener Umland/Südteil","NAME_LATN":"Wiener Umland/Südteil","FID":"AT127"},"id":"AT127"},{"type":"Point","coordinates":[16.3862,48.2227],"properties":{"NUTS_ID":"AT130","LEVL_CODE":3,"CNTR_CODE":"AT","NUTS_NAME":"Wien","NAME_LATN":"Wien","FID":"AT130"},"id":"AT130"},{"type":"Point","coordinates":[13.9684,46.5773],"properties":{"NUTS_ID":"AT211","LEVL_CODE":3,"CNTR_CODE":"AT","NUTS_NAME":"Klagenfurt-Villach","NAME_LATN":"Klagenfurt-Villach","FID":"AT211"},"id":"AT211"},{"type":"Point","coordinates":[13.2781,46.8729],"properties":{"NUTS_ID":"AT212","LEVL_CODE":3,"CNTR_CODE":"AT","NUTS_NAME":"Oberkärnten","NAME_LATN":"Oberkärnten","FID":"AT212"},"id":"AT212"},{"type":"Point","coordinates":[14.7061,46.7864],"properties":{"NUTS_ID":"AT213","LEVL_CODE":3,"CNTR_CODE":"AT","NUTS_NAME":"Unterkärnten","NAME_LATN":"Unterkärnten","FID":"AT213"},"id":"AT213"},{"type":"Point","coordinates":[15.3875,47.1277],"properties":{"NUTS_ID":"AT221","LEVL_CODE":3,"CNTR_CODE":"AT","NUTS_NAME":"Graz","NAME_LATN":"Graz","FID":"AT221"},"id":"AT221"},{"type":"Point","coordinates":[14.3434,47.5164],"properties":{"NUTS_ID":"AT222","LEVL_CODE":3,"CNTR_CODE":"AT","NUTS_NAME":"Liezen","NAME_LATN":"Liezen","FID":"AT222"},"id":"AT222"},{"type":"Point","coordinates":[15.2353,47.5607],"properties":{"NUTS_ID":"AT223","LEVL_CODE":3,"CNTR_CODE":"AT","NUTS_NAME":"Östliche Obersteiermark","NAME_LATN":"Östliche Obersteiermark","FID":"AT223"},"id":"AT223"},{"type":"Point","coordinates":[15.7839,47.131],"properties":{"NUTS_ID":"AT224","LEVL_CODE":3,"CNTR_CODE":"AT","NUTS_NAME":"Oststeiermark","NAME_LATN":"Oststeiermark","FID":"AT224"},"id":"AT224"},{"type":"Point","coordinates":[15.2577,46.8246],"properties":{"NUTS_ID":"AT225","LEVL_CODE":3,"CNTR_CODE":"AT","NUTS_NAME":"West- und Südsteiermark","NAME_LATN":"West- und Südsteiermark","FID":"AT225"},"id":"AT225"},{"type":"Point","coordinates":[14.4292,47.2256],"properties":{"NUTS_ID":"AT226","LEVL_CODE":3,"CNTR_CODE":"AT","NUTS_NAME":"Westliche Obersteiermark","NAME_LATN":"Westliche Obersteiermark","FID":"AT226"},"id":"AT226"},{"type":"Point","coordinates":[13.3764,48.208],"properties":{"NUTS_ID":"AT311","LEVL_CODE":3,"CNTR_CODE":"AT","NUTS_NAME":"Innviertel","NAME_LATN":"Innviertel","FID":"AT311"},"id":"AT311"},{"type":"Point","coordinates":[14.1447,48.2707],"properties":{"NUTS_ID":"AT312","LEVL_CODE":3,"CNTR_CODE":"AT","NUTS_NAME":"Linz-Wels","NAME_LATN":"Linz-Wels","FID":"AT312"},"id":"AT312"},{"type":"Point","coordinates":[14.3707,48.4928],"properties":{"NUTS_ID":"AT313","LEVL_CODE":3,"CNTR_CODE":"AT","NUTS_NAME":"Mühlviertel","NAME_LATN":"Mühlviertel","FID":"AT313"},"id":"AT313"},{"type":"Point","coordinates":[14.3569,47.8736],"properties":{"NUTS_ID":"AT314","LEVL_CODE":3,"CNTR_CODE":"AT","NUTS_NAME":"Steyr-Kirchdorf","NAME_LATN":"Steyr-Kirchdorf","FID":"AT314"},"id":"AT314"},{"type":"Point","coordinates":[13.6787,47.794],"properties":{"NUTS_ID":"AT315","LEVL_CODE":3,"CNTR_CODE":"AT","NUTS_NAME":"Traunviertel","NAME_LATN":"Traunviertel","FID":"AT315"},"id":"AT315"},{"type":"Point","coordinates":[13.6577,47.1563],"properties":{"NUTS_ID":"AT321","LEVL_CODE":3,"CNTR_CODE":"AT","NUTS_NAME":"Lungau","NAME_LATN":"Lungau","FID":"AT321"},"id":"AT321"},{"type":"Point","coordinates":[12.8438,47.3095],"properties":{"NUTS_ID":"AT322","LEVL_CODE":3,"CNTR_CODE":"AT","NUTS_NAME":"Pinzgau-Pongau","NAME_LATN":"Pinzgau-Pongau","FID":"AT322"},"id":"AT322"},{"type":"Point","coordinates":[13.2011,47.7676],"properties":{"NUTS_ID":"AT323","LEVL_CODE":3,"CNTR_CODE":"AT","NUTS_NAME":"Salzburg und Umgebung","NAME_LATN":"Salzburg und Umgebung","FID":"AT323"},"id":"AT323"},{"type":"Point","coordinates":[10.5832,47.4218],"properties":{"NUTS_ID":"AT331","LEVL_CODE":3,"CNTR_CODE":"AT","NUTS_NAME":"Außerfern","NAME_LATN":"Außerfern","FID":"AT331"},"id":"AT331"},{"type":"Point","coordinates":[11.3467,47.2166],"properties":{"NUTS_ID":"AT332","LEVL_CODE":3,"CNTR_CODE":"AT","NUTS_NAME":"Innsbruck","NAME_LATN":"Innsbruck","FID":"AT332"},"id":"AT332"},{"type":"Point","coordinates":[12.5445,46.8989],"properties":{"NUTS_ID":"AT333","LEVL_CODE":3,"CNTR_CODE":"AT","NUTS_NAME":"Osttirol","NAME_LATN":"Osttirol","FID":"AT333"},"id":"AT333"},{"type":"Point","coordinates":[10.6345,47.0678],"properties":{"NUTS_ID":"AT334","LEVL_CODE":3,"CNTR_CODE":"AT","NUTS_NAME":"Tiroler Oberland","NAME_LATN":"Tiroler Oberland","FID":"AT334"},"id":"AT334"},{"type":"Point","coordinates":[11.9459,47.3902],"properties":{"NUTS_ID":"AT335","LEVL_CODE":3,"CNTR_CODE":"AT","NUTS_NAME":"Tiroler Unterland","NAME_LATN":"Tiroler Unterland","FID":"AT335"},"id":"AT335"},{"type":"Point","coordinates":[9.9211,47.2112],"properties":{"NUTS_ID":"AT341","LEVL_CODE":3,"CNTR_CODE":"AT","NUTS_NAME":"Bludenz-Bregenzer Wald","NAME_LATN":"Bludenz-Bregenzer Wald","FID":"AT341"},"id":"AT341"},{"type":"Point","coordinates":[9.7643,47.4102],"properties":{"NUTS_ID":"AT342","LEVL_CODE":3,"CNTR_CODE":"AT","NUTS_NAME":"Rheintal-Bodenseegebiet","NAME_LATN":"Rheintal-Bodenseegebiet","FID":"AT342"},"id":"AT342"},{"type":"Point","coordinates":[4.3598,50.8368],"properties":{"NUTS_ID":"BE100","LEVL_CODE":3,"CNTR_CODE":"BE","NUTS_NAME":"Arr. de Bruxelles-Capitale / Arr. van Brussel-Hoofdstad","NAME_LATN":"Arr. de Bruxelles-Capitale / Arr. van Brussel-Hoofdstad","FID":"BE100"},"id":"BE100"},{"type":"Point","coordinates":[4.5014,51.3019],"properties":{"NUTS_ID":"BE211","LEVL_CODE":3,"CNTR_CODE":"BE","NUTS_NAME":"Arr. Antwerpen","NAME_LATN":"Arr. Antwerpen","FID":"BE211"},"id":"BE211"},{"type":"Point","coordinates":[4.4997,51.0592],"properties":{"NUTS_ID":"BE212","LEVL_CODE":3,"CNTR_CODE":"BE","NUTS_NAME":"Arr. Mechelen","NAME_LATN":"Arr. Mechelen","FID":"BE212"},"id":"BE212"},{"type":"Point","coordinates":[4.9719,51.2304],"properties":{"NUTS_ID":"BE213","LEVL_CODE":3,"CNTR_CODE":"BE","NUTS_NAME":"Arr. Turnhout","NAME_LATN":"Arr. Turnhout","FID":"BE213"},"id":"BE213"},{"type":"Point","coordinates":[5.3148,50.9961],"properties":{"NUTS_ID":"BE221","LEVL_CODE":3,"CNTR_CODE":"BE","NUTS_NAME":"Arr. Hasselt","NAME_LATN":"Arr. Hasselt","FID":"BE221"},"id":"BE221"},{"type":"Point","coordinates":[5.5365,51.1708],"properties":{"NUTS_ID":"BE222","LEVL_CODE":3,"CNTR_CODE":"BE","NUTS_NAME":"Arr. Maaseik","NAME_LATN":"Arr. Maaseik","FID":"BE222"},"id":"BE222"},{"type":"Point","coordinates":[5.5043,50.8264],"properties":{"NUTS_ID":"BE223","LEVL_CODE":3,"CNTR_CODE":"BE","NUTS_NAME":"Arr. Tongeren","NAME_LATN":"Arr. Tongeren","FID":"BE223"},"id":"BE223"},{"type":"Point","coordinates":[3.9626,50.8695],"properties":{"NUTS_ID":"BE231","LEVL_CODE":3,"CNTR_CODE":"BE","NUTS_NAME":"Arr. Aalst","NAME_LATN":"Arr. Aalst","FID":"BE231"},"id":"BE231"},{"type":"Point","coordinates":[4.0288,51.0393],"properties":{"NUTS_ID":"BE232","LEVL_CODE":3,"CNTR_CODE":"BE","NUTS_NAME":"Arr. Dendermonde","NAME_LATN":"Arr. Dendermonde","FID":"BE232"},"id":"BE232"},{"type":"Point","coordinates":[3.6033,51.2382],"properties":{"NUTS_ID":"BE233","LEVL_CODE":3,"CNTR_CODE":"BE","NUTS_NAME":"Arr. Eeklo","NAME_LATN":"Arr. Eeklo","FID":"BE233"},"id":"BE233"},{"type":"Point","coordinates":[3.6786,51.039],"properties":{"NUTS_ID":"BE234","LEVL_CODE":3,"CNTR_CODE":"BE","NUTS_NAME":"Arr. Gent","NAME_LATN":"Arr. Gent","FID":"BE234"},"id":"BE234"},{"type":"Point","coordinates":[3.6638,50.837],"properties":{"NUTS_ID":"BE235","LEVL_CODE":3,"CNTR_CODE":"BE","NUTS_NAME":"Arr. Oudenaarde","NAME_LATN":"Arr. Oudenaarde","FID":"BE235"},"id":"BE235"},{"type":"Point","coordinates":[4.1095,51.2033],"properties":{"NUTS_ID":"BE236","LEVL_CODE":3,"CNTR_CODE":"BE","NUTS_NAME":"Arr. Sint-Niklaas","NAME_LATN":"Arr. Sint-Niklaas","FID":"BE236"},"id":"BE236"},{"type":"Point","coordinates":[4.1612,50.8288],"properties":{"NUTS_ID":"BE241","LEVL_CODE":3,"CNTR_CODE":"BE","NUTS_NAME":"Arr. Halle-Vilvoorde","NAME_LATN":"Arr. Halle-Vilvoorde","FID":"BE241"},"id":"BE241"},{"type":"Point","coordinates":[4.8122,50.9027],"properties":{"NUTS_ID":"BE242","LEVL_CODE":3,"CNTR_CODE":"BE","NUTS_NAME":"Arr. Leuven","NAME_LATN":"Arr. Leuven","FID":"BE242"},"id":"BE242"},{"type":"Point","coordinates":[3.2117,51.2146],"properties":{"NUTS_ID":"BE251","LEVL_CODE":3,"CNTR_CODE":"BE","NUTS_NAME":"Arr. Brugge","NAME_LATN":"Arr. Brugge","FID":"BE251"},"id":"BE251"},{"type":"Point","coordinates":[2.8793,51.0203],"properties":{"NUTS_ID":"BE252","LEVL_CODE":3,"CNTR_CODE":"BE","NUTS_NAME":"Arr. Diksmuide","NAME_LATN":"Arr. Diksmuide","FID":"BE252"},"id":"BE252"},{"type":"Point","coordinates":[2.8522,50.8431],"properties":{"NUTS_ID":"BE253","LEVL_CODE":3,"CNTR_CODE":"BE","NUTS_NAME":"Arr. Ieper","NAME_LATN":"Arr. Ieper","FID":"BE253"},"id":"BE253"},{"type":"Point","coordinates":[3.2985,50.8278],"properties":{"NUTS_ID":"BE254","LEVL_CODE":3,"CNTR_CODE":"BE","NUTS_NAME":"Arr. Kortrijk","NAME_LATN":"Arr. Kortrijk","FID":"BE254"},"id":"BE254"},{"type":"Point","coordinates":[2.94,51.1769],"properties":{"NUTS_ID":"BE255","LEVL_CODE":3,"CNTR_CODE":"BE","NUTS_NAME":"Arr. Oostende","NAME_LATN":"Arr. Oostende","FID":"BE255"},"id":"BE255"},{"type":"Point","coordinates":[3.1274,50.9423],"properties":{"NUTS_ID":"BE256","LEVL_CODE":3,"CNTR_CODE":"BE","NUTS_NAME":"Arr. Roeselare","NAME_LATN":"Arr. Roeselare","FID":"BE256"},"id":"BE256"},{"type":"Point","coordinates":[3.3072,50.993],"properties":{"NUTS_ID":"BE257","LEVL_CODE":3,"CNTR_CODE":"BE","NUTS_NAME":"Arr. Tielt","NAME_LATN":"Arr. Tielt","FID":"BE257"},"id":"BE257"},{"type":"Point","coordinates":[2.6763,51.0473],"properties":{"NUTS_ID":"BE258","LEVL_CODE":3,"CNTR_CODE":"BE","NUTS_NAME":"Arr. Veurne","NAME_LATN":"Arr. Veurne","FID":"BE258"},"id":"BE258"},{"type":"Point","coordinates":[4.5624,50.6436],"properties":{"NUTS_ID":"BE310","LEVL_CODE":3,"CNTR_CODE":"BE","NUTS_NAME":"Arr. Nivelles","NAME_LATN":"Arr. Nivelles","FID":"BE310"},"id":"BE310"},{"type":"Point","coordinates":[3.7591,50.6261],"properties":{"NUTS_ID":"BE321","LEVL_CODE":3,"CNTR_CODE":"BE","NUTS_NAME":"Arr. Ath","NAME_LATN":"Arr. Ath","FID":"BE321"},"id":"BE321"},{"type":"Point","coordinates":[4.4036,50.4611],"properties":{"NUTS_ID":"BE322","LEVL_CODE":3,"CNTR_CODE":"BE","NUTS_NAME":"Arr. Charleroi","NAME_LATN":"Arr. Charleroi","FID":"BE322"},"id":"BE322"},{"type":"Point","coordinates":[3.8642,50.4602],"properties":{"NUTS_ID":"BE323","LEVL_CODE":3,"CNTR_CODE":"BE","NUTS_NAME":"Arr. Mons","NAME_LATN":"Arr. Mons","FID":"BE323"},"id":"BE323"},{"type":"Point","coordinates":[2.986,50.774],"properties":{"NUTS_ID":"BE324","LEVL_CODE":3,"CNTR_CODE":"BE","NUTS_NAME":"Arr. Mouscron","NAME_LATN":"Arr. Mouscron","FID":"BE324"},"id":"BE324"},{"type":"Point","coordinates":[4.009,50.5995],"properties":{"NUTS_ID":"BE325","LEVL_CODE":3,"CNTR_CODE":"BE","NUTS_NAME":"Arr. Soignies","NAME_LATN":"Arr. Soignies","FID":"BE325"},"id":"BE325"},{"type":"Point","coordinates":[4.2676,50.2185],"properties":{"NUTS_ID":"BE326","LEVL_CODE":3,"CNTR_CODE":"BE","NUTS_NAME":"Arr. Thuin","NAME_LATN":"Arr. Thuin","FID":"BE326"},"id":"BE326"},{"type":"Point","coordinates":[3.474,50.6476],"properties":{"NUTS_ID":"BE327","LEVL_CODE":3,"CNTR_CODE":"BE","NUTS_NAME":"Arr. Tournai","NAME_LATN":"Arr. Tournai","FID":"BE327"},"id":"BE327"},{"type":"Point","coordinates":[5.3709,50.4759],"properties":{"NUTS_ID":"BE331","LEVL_CODE":3,"CNTR_CODE":"BE","NUTS_NAME":"Arr. Huy","NAME_LATN":"Arr. Huy","FID":"BE331"},"id":"BE331"},{"type":"Point","coordinates":[5.5892,50.6184],"properties":{"NUTS_ID":"BE332","LEVL_CODE":3,"CNTR_CODE":"BE","NUTS_NAME":"Arr. Liège","NAME_LATN":"Arr. Liège","FID":"BE332"},"id":"BE332"},{"type":"Point","coordinates":[5.2067,50.6718],"properties":{"NUTS_ID":"BE334","LEVL_CODE":3,"CNTR_CODE":"BE","NUTS_NAME":"Arr. Waremme","NAME_LATN":"Arr. Waremme","FID":"BE334"},"id":"BE334"},{"type":"Point","coordinates":[5.9448,50.5409],"properties":{"NUTS_ID":"BE335","LEVL_CODE":3,"CNTR_CODE":"BE","NUTS_NAME":"Arr. Verviers - communes francophones","NAME_LATN":"Arr. Verviers - communes francophones","FID":"BE335"},"id":"BE335"},{"type":"Point","coordinates":[6.2491,50.3975],"properties":{"NUTS_ID":"BE336","LEVL_CODE":3,"CNTR_CODE":"BE","NUTS_NAME":"Bezirk Verviers - Deutschsprachige Gemeinschaft","NAME_LATN":"Bezirk Verviers - Deutschsprachige Gemeinschaft","FID":"BE336"},"id":"BE336"},{"type":"Point","coordinates":[5.7948,49.6729],"properties":{"NUTS_ID":"BE341","LEVL_CODE":3,"CNTR_CODE":"BE","NUTS_NAME":"Arr. Arlon","NAME_LATN":"Arr. Arlon","FID":"BE341"},"id":"BE341"},{"type":"Point","coordinates":[5.7481,50.0827],"properties":{"NUTS_ID":"BE342","LEVL_CODE":3,"CNTR_CODE":"BE","NUTS_NAME":"Arr. Bastogne","NAME_LATN":"Arr. Bastogne","FID":"BE342"},"id":"BE342"},{"type":"Point","coordinates":[5.4786,50.2436],"properties":{"NUTS_ID":"BE343","LEVL_CODE":3,"CNTR_CODE":"BE","NUTS_NAME":"Arr. Marche-en-Famenne","NAME_LATN":"Arr. Marche-en-Famenne","FID":"BE343"},"id":"BE343"},{"type":"Point","coordinates":[5.3247,49.9325],"properties":{"NUTS_ID":"BE344","LEVL_CODE":3,"CNTR_CODE":"BE","NUTS_NAME":"Arr. Neufchâteau","NAME_LATN":"Arr. Neufchâteau","FID":"BE344"},"id":"BE344"},{"type":"Point","coordinates":[5.4905,49.6655],"properties":{"NUTS_ID":"BE345","LEVL_CODE":3,"CNTR_CODE":"BE","NUTS_NAME":"Arr. Virton","NAME_LATN":"Arr. Virton","FID":"BE345"},"id":"BE345"},{"type":"Point","coordinates":[5.03,50.1662],"properties":{"NUTS_ID":"BE351","LEVL_CODE":3,"CNTR_CODE":"BE","NUTS_NAME":"Arr. Dinant","NAME_LATN":"Arr. Dinant","FID":"BE351"},"id":"BE351"},{"type":"Point","coordinates":[4.8497,50.463],"properties":{"NUTS_ID":"BE352","LEVL_CODE":3,"CNTR_CODE":"BE","NUTS_NAME":"Arr. Namur","NAME_LATN":"Arr. Namur","FID":"BE352"},"id":"BE352"},{"type":"Point","coordinates":[4.5509,50.1448],"properties":{"NUTS_ID":"BE353","LEVL_CODE":3,"CNTR_CODE":"BE","NUTS_NAME":"Arr. Philippeville","NAME_LATN":"Arr. Philippeville","FID":"BE353"},"id":"BE353"},{"type":"Point","coordinates":[22.7182,43.7975],"properties":{"NUTS_ID":"BG311","LEVL_CODE":3,"CNTR_CODE":"BG","NUTS_NAME":"Видин","NAME_LATN":"Vidin","FID":"BG311"},"id":"BG311"},{"type":"Point","coordinates":[23.1978,43.482],"properties":{"NUTS_ID":"BG312","LEVL_CODE":3,"CNTR_CODE":"BG","NUTS_NAME":"Монтана","NAME_LATN":"Montana","FID":"BG312"},"id":"BG312"},{"type":"Point","coordinates":[23.7939,43.3921],"properties":{"NUTS_ID":"BG313","LEVL_CODE":3,"CNTR_CODE":"BG","NUTS_NAME":"Враца","NAME_LATN":"Vratsa","FID":"BG313"},"id":"BG313"},{"type":"Point","coordinates":[24.626,43.4566],"properties":{"NUTS_ID":"BG314","LEVL_CODE":3,"CNTR_CODE":"BG","NUTS_NAME":"Плевен","NAME_LATN":"Pleven","FID":"BG314"},"id":"BG314"},{"type":"Point","coordinates":[24.5036,42.9799],"properties":{"NUTS_ID":"BG315","LEVL_CODE":3,"CNTR_CODE":"BG","NUTS_NAME":"Ловеч","NAME_LATN":"Lovech","FID":"BG315"},"id":"BG315"},{"type":"Point","coordinates":[25.6437,43.1612],"properties":{"NUTS_ID":"BG321","LEVL_CODE":3,"CNTR_CODE":"BG","NUTS_NAME":"Велико Търново","NAME_LATN":"Veliko Tarnovo","FID":"BG321"},"id":"BG321"},{"type":"Point","coordinates":[25.2667,42.9326],"properties":{"NUTS_ID":"BG322","LEVL_CODE":3,"CNTR_CODE":"BG","NUTS_NAME":"Габрово","NAME_LATN":"Gabrovo","FID":"BG322"},"id":"BG322"},{"type":"Point","coordinates":[25.9567,43.6321],"properties":{"NUTS_ID":"BG323","LEVL_CODE":3,"CNTR_CODE":"BG","NUTS_NAME":"Русе","NAME_LATN":"Ruse","FID":"BG323"},"id":"BG323"},{"type":"Point","coordinates":[26.5865,43.6058],"properties":{"NUTS_ID":"BG324","LEVL_CODE":3,"CNTR_CODE":"BG","NUTS_NAME":"Разград","NAME_LATN":"Razgrad","FID":"BG324"},"id":"BG324"},{"type":"Point","coordinates":[27.0053,43.9449],"properties":{"NUTS_ID":"BG325","LEVL_CODE":3,"CNTR_CODE":"BG","NUTS_NAME":"Силистра","NAME_LATN":"Silistra","FID":"BG325"},"id":"BG325"},{"type":"Point","coordinates":[27.5695,43.1855],"properties":{"NUTS_ID":"BG331","LEVL_CODE":3,"CNTR_CODE":"BG","NUTS_NAME":"Варна","NAME_LATN":"Varna","FID":"BG331"},"id":"BG331"},{"type":"Point","coordinates":[27.9052,43.632],"properties":{"NUTS_ID":"BG332","LEVL_CODE":3,"CNTR_CODE":"BG","NUTS_NAME":"Добрич","NAME_LATN":"Dobrich","FID":"BG332"},"id":"BG332"},{"type":"Point","coordinates":[27.0024,43.3165],"properties":{"NUTS_ID":"BG333","LEVL_CODE":3,"CNTR_CODE":"BG","NUTS_NAME":"Шумен","NAME_LATN":"Shumen","FID":"BG333"},"id":"BG333"},{"type":"Point","coordinates":[26.3549,43.2466],"properties":{"NUTS_ID":"BG334","LEVL_CODE":3,"CNTR_CODE":"BG","NUTS_NAME":"Търговище","NAME_LATN":"Targovishte","FID":"BG334"},"id":"BG334"},{"type":"Point","coordinates":[27.3042,42.491],"properties":{"NUTS_ID":"BG341","LEVL_CODE":3,"CNTR_CODE":"BG","NUTS_NAME":"Бургас","NAME_LATN":"Burgas","FID":"BG341"},"id":"BG341"},{"type":"Point","coordinates":[26.2381,42.6399],"properties":{"NUTS_ID":"BG342","LEVL_CODE":3,"CNTR_CODE":"BG","NUTS_NAME":"Сливен","NAME_LATN":"Sliven","FID":"BG342"},"id":"BG342"},{"type":"Point","coordinates":[26.6374,42.3128],"properties":{"NUTS_ID":"BG343","LEVL_CODE":3,"CNTR_CODE":"BG","NUTS_NAME":"Ямбол","NAME_LATN":"Yambol","FID":"BG343"},"id":"BG343"},{"type":"Point","coordinates":[25.5942,42.4863],"properties":{"NUTS_ID":"BG344","LEVL_CODE":3,"CNTR_CODE":"BG","NUTS_NAME":"Стара Загора","NAME_LATN":"Stara Zagora","FID":"BG344"},"id":"BG344"},{"type":"Point","coordinates":[23.3844,42.6813],"properties":{"NUTS_ID":"BG411","LEVL_CODE":3,"CNTR_CODE":"BG","NUTS_NAME":"София (столица)","NAME_LATN":"Sofia (stolitsa)","FID":"BG411"},"id":"BG411"},{"type":"Point","coordinates":[23.8466,42.7449],"properties":{"NUTS_ID":"BG412","LEVL_CODE":3,"CNTR_CODE":"BG","NUTS_NAME":"София","NAME_LATN":"Sofia","FID":"BG412"},"id":"BG412"},{"type":"Point","coordinates":[23.479,41.7445],"properties":{"NUTS_ID":"BG413","LEVL_CODE":3,"CNTR_CODE":"BG","NUTS_NAME":"Благоевград","NAME_LATN":"Blagoevgrad","FID":"BG413"},"id":"BG413"},{"type":"Point","coordinates":[22.854,42.6074],"properties":{"NUTS_ID":"BG414","LEVL_CODE":3,"CNTR_CODE":"BG","NUTS_NAME":"Перник","NAME_LATN":"Pernik","FID":"BG414"},"id":"BG414"},{"type":"Point","coordinates":[22.888,42.2588],"properties":{"NUTS_ID":"BG415","LEVL_CODE":3,"CNTR_CODE":"BG","NUTS_NAME":"Кюстендил","NAME_LATN":"Kyustendil","FID":"BG415"},"id":"BG415"},{"type":"Point","coordinates":[24.8361,42.3087],"properties":{"NUTS_ID":"BG421","LEVL_CODE":3,"CNTR_CODE":"BG","NUTS_NAME":"Пловдив","NAME_LATN":"Plovdiv","FID":"BG421"},"id":"BG421"},{"type":"Point","coordinates":[25.9276,41.8517],"properties":{"NUTS_ID":"BG422","LEVL_CODE":3,"CNTR_CODE":"BG","NUTS_NAME":"Хасково","NAME_LATN":"Haskovo","FID":"BG422"},"id":"BG422"},{"type":"Point","coordinates":[24.1498,42.162],"properties":{"NUTS_ID":"BG423","LEVL_CODE":3,"CNTR_CODE":"BG","NUTS_NAME":"Пазарджик","NAME_LATN":"Pazardzhik","FID":"BG423"},"id":"BG423"},{"type":"Point","coordinates":[24.6683,41.6575],"properties":{"NUTS_ID":"BG424","LEVL_CODE":3,"CNTR_CODE":"BG","NUTS_NAME":"Смолян","NAME_LATN":"Smolyan","FID":"BG424"},"id":"BG424"},{"type":"Point","coordinates":[25.4956,41.5166],"properties":{"NUTS_ID":"BG425","LEVL_CODE":3,"CNTR_CODE":"BG","NUTS_NAME":"Кърджали","NAME_LATN":"Kardzhali","FID":"BG425"},"id":"BG425"},{"type":"Point","coordinates":[6.643,46.6727],"properties":{"NUTS_ID":"CH011","LEVL_CODE":3,"CNTR_CODE":"CH","NUTS_NAME":"Vaud","NAME_LATN":"Vaud","FID":"CH011"},"id":"CH011"},{"type":"Point","coordinates":[7.6335,46.2062],"properties":{"NUTS_ID":"CH012","LEVL_CODE":3,"CNTR_CODE":"CH","NUTS_NAME":"Valais","NAME_LATN":"Valais","FID":"CH012"},"id":"CH012"},{"type":"Point","coordinates":[6.1336,46.2197],"properties":{"NUTS_ID":"CH013","LEVL_CODE":3,"CNTR_CODE":"CH","NUTS_NAME":"Genève","NAME_LATN":"Genève","FID":"CH013"},"id":"CH013"},{"type":"Point","coordinates":[7.6683,46.789],"properties":{"NUTS_ID":"CH021","LEVL_CODE":3,"CNTR_CODE":"CH","NUTS_NAME":"Bern","NAME_LATN":"Bern","FID":"CH021"},"id":"CH021"},{"type":"Point","coordinates":[7.0843,46.6894],"properties":{"NUTS_ID":"CH022","LEVL_CODE":3,"CNTR_CODE":"CH","NUTS_NAME":"Freiburg","NAME_LATN":"Freiburg","FID":"CH022"},"id":"CH022"},{"type":"Point","coordinates":[7.6837,47.3321],"properties":{"NUTS_ID":"CH023","LEVL_CODE":3,"CNTR_CODE":"CH","NUTS_NAME":"Solothurn","NAME_LATN":"Solothurn","FID":"CH023"},"id":"CH023"},{"type":"Point","coordinates":[6.7605,46.9877],"properties":{"NUTS_ID":"CH024","LEVL_CODE":3,"CNTR_CODE":"CH","NUTS_NAME":"Neuchâtel","NAME_LATN":"Neuchâtel","FID":"CH024"},"id":"CH024"},{"type":"Point","coordinates":[7.1929,47.3677],"properties":{"NUTS_ID":"CH025","LEVL_CODE":3,"CNTR_CODE":"CH","NUTS_NAME":"Jura","NAME_LATN":"Jura","FID":"CH025"},"id":"CH025"},{"type":"Point","coordinates":[7.615,47.5649],"properties":{"NUTS_ID":"CH031","LEVL_CODE":3,"CNTR_CODE":"CH","NUTS_NAME":"Basel-Stadt","NAME_LATN":"Basel-Stadt","FID":"CH031"},"id":"CH031"},{"type":"Point","coordinates":[7.7627,47.4646],"properties":{"NUTS_ID":"CH032","LEVL_CODE":3,"CNTR_CODE":"CH","NUTS_NAME":"Basel-Landschaft","NAME_LATN":"Basel-Landschaft","FID":"CH032"},"id":"CH032"},{"type":"Point","coordinates":[8.0861,47.4102],"properties":{"NUTS_ID":"CH033","LEVL_CODE":3,"CNTR_CODE":"CH","NUTS_NAME":"Aargau","NAME_LATN":"Aargau","FID":"CH033"},"id":"CH033"},{"type":"Point","coordinates":[8.6717,47.4233],"properties":{"NUTS_ID":"CH040","LEVL_CODE":3,"CNTR_CODE":"CH","NUTS_NAME":"Zürich","NAME_LATN":"Zürich","FID":"CH040"},"id":"CH040"},{"type":"Point","coordinates":[9.0599,47.0054],"properties":{"NUTS_ID":"CH051","LEVL_CODE":3,"CNTR_CODE":"CH","NUTS_NAME":"Glarus","NAME_LATN":"Glarus","FID":"CH051"},"id":"CH051"},{"type":"Point","coordinates":[8.5729,47.7212],"properties":{"NUTS_ID":"CH052","LEVL_CODE":3,"CNTR_CODE":"CH","NUTS_NAME":"Schaffhausen","NAME_LATN":"Schaffhausen","FID":"CH052"},"id":"CH052"},{"type":"Point","coordinates":[9.4108,47.3865],"properties":{"NUTS_ID":"CH053","LEVL_CODE":3,"CNTR_CODE":"CH","NUTS_NAME":"Appenzell Ausserrhoden","NAME_LATN":"Appenzell Ausserrhoden","FID":"CH053"},"id":"CH053"},{"type":"Point","coordinates":[9.4066,47.3066],"properties":{"NUTS_ID":"CH054","LEVL_CODE":3,"CNTR_CODE":"CH","NUTS_NAME":"Appenzell Innerrhoden","NAME_LATN":"Appenzell Innerrhoden","FID":"CH054"},"id":"CH054"},{"type":"Point","coordinates":[9.1813,47.2081],"properties":{"NUTS_ID":"CH055","LEVL_CODE":3,"CNTR_CODE":"CH","NUTS_NAME":"St. Gallen","NAME_LATN":"St. Gallen","FID":"CH055"},"id":"CH055"},{"type":"Point","coordinates":[9.5714,46.6751],"properties":{"NUTS_ID":"CH056","LEVL_CODE":3,"CNTR_CODE":"CH","NUTS_NAME":"Graubünden","NAME_LATN":"Graubünden","FID":"CH056"},"id":"CH056"},{"type":"Point","coordinates":[9.0865,47.5824],"properties":{"NUTS_ID":"CH057","LEVL_CODE":3,"CNTR_CODE":"CH","NUTS_NAME":"Thurgau","NAME_LATN":"Thurgau","FID":"CH057"},"id":"CH057"},{"type":"Point","coordinates":[8.1767,47.0981],"properties":{"NUTS_ID":"CH061","LEVL_CODE":3,"CNTR_CODE":"CH","NUTS_NAME":"Luzern","NAME_LATN":"Luzern","FID":"CH061"},"id":"CH061"},{"type":"Point","coordinates":[8.6288,46.7721],"properties":{"NUTS_ID":"CH062","LEVL_CODE":3,"CNTR_CODE":"CH","NUTS_NAME":"Uri","NAME_LATN":"Uri","FID":"CH062"},"id":"CH062"},{"type":"Point","coordinates":[8.6983,47.0362],"properties":{"NUTS_ID":"CH063","LEVL_CODE":3,"CNTR_CODE":"CH","NUTS_NAME":"Schwyz","NAME_LATN":"Schwyz","FID":"CH063"},"id":"CH063"},{"type":"Point","coordinates":[8.2037,46.8684],"properties":{"NUTS_ID":"CH064","LEVL_CODE":3,"CNTR_CODE":"CH","NUTS_NAME":"Obwalden","NAME_LATN":"Obwalden","FID":"CH064"},"id":"CH064"},{"type":"Point","coordinates":[8.4054,46.9269],"properties":{"NUTS_ID":"CH065","LEVL_CODE":3,"CNTR_CODE":"CH","NUTS_NAME":"Nidwalden","NAME_LATN":"Nidwalden","FID":"CH065"},"id":"CH065"},{"type":"Point","coordinates":[8.5489,47.1578],"properties":{"NUTS_ID":"CH066","LEVL_CODE":3,"CNTR_CODE":"CH","NUTS_NAME":"Zug","NAME_LATN":"Zug","FID":"CH066"},"id":"CH066"},{"type":"Point","coordinates":[8.7715,46.335],"properties":{"NUTS_ID":"CH070","LEVL_CODE":3,"CNTR_CODE":"CH","NUTS_NAME":"Ticino","NAME_LATN":"Ticino","FID":"CH070"},"id":"CH070"},{"type":"Point","coordinates":[33.2996,35.0204],"properties":{"NUTS_ID":"CY000","LEVL_CODE":3,"CNTR_CODE":"CY","NUTS_NAME":"Κύπρος","NAME_LATN":"Kýpros","FID":"CY000"},"id":"CY000"},{"type":"Point","coordinates":[14.4634,50.0708],"properties":{"NUTS_ID":"CZ010","LEVL_CODE":3,"CNTR_CODE":"CZ","NUTS_NAME":"Hlavní město Praha","NAME_LATN":"Hlavní město Praha","FID":"CZ010"},"id":"CZ010"},{"type":"Point","coordinates":[14.4463,49.7629],"properties":{"NUTS_ID":"CZ020","LEVL_CODE":3,"CNTR_CODE":"CZ","NUTS_NAME":"Středočeský kraj","NAME_LATN":"Středočeský kraj","FID":"CZ020"},"id":"CZ020"},{"type":"Point","coordinates":[14.5714,49.0685],"properties":{"NUTS_ID":"CZ031","LEVL_CODE":3,"CNTR_CODE":"CZ","NUTS_NAME":"Jihočeský kraj","NAME_LATN":"Jihočeský kraj","FID":"CZ031"},"id":"CZ031"},{"type":"Point","coordinates":[13.1052,49.6359],"properties":{"NUTS_ID":"CZ032","LEVL_CODE":3,"CNTR_CODE":"CZ","NUTS_NAME":"Plzeňský kraj","NAME_LATN":"Plzeňský kraj","FID":"CZ032"},"id":"CZ032"},{"type":"Point","coordinates":[12.7537,50.1741],"properties":{"NUTS_ID":"CZ041","LEVL_CODE":3,"CNTR_CODE":"CZ","NUTS_NAME":"Karlovarský kraj","NAME_LATN":"Karlovarský kraj","FID":"CZ041"},"id":"CZ041"},{"type":"Point","coordinates":[13.778,50.4858],"properties":{"NUTS_ID":"CZ042","LEVL_CODE":3,"CNTR_CODE":"CZ","NUTS_NAME":"Ústecký kraj","NAME_LATN":"Ústecký kraj","FID":"CZ042"},"id":"CZ042"},{"type":"Point","coordinates":[15.0625,50.7309],"properties":{"NUTS_ID":"CZ051","LEVL_CODE":3,"CNTR_CODE":"CZ","NUTS_NAME":"Liberecký kraj","NAME_LATN":"Liberecký kraj","FID":"CZ051"},"id":"CZ051"},{"type":"Point","coordinates":[15.8615,50.4063],"properties":{"NUTS_ID":"CZ052","LEVL_CODE":3,"CNTR_CODE":"CZ","NUTS_NAME":"Královéhradecký kraj","NAME_LATN":"Královéhradecký kraj","FID":"CZ052"},"id":"CZ052"},{"type":"Point","coordinates":[16.1099,49.8846],"properties":{"NUTS_ID":"CZ053","LEVL_CODE":3,"CNTR_CODE":"CZ","NUTS_NAME":"Pardubický kraj","NAME_LATN":"Pardubický kraj","FID":"CZ053"},"id":"CZ053"},{"type":"Point","coordinates":[15.6715,49.4135],"properties":{"NUTS_ID":"CZ063","LEVL_CODE":3,"CNTR_CODE":"CZ","NUTS_NAME":"Vysočina","NAME_LATN":"Vysočina","FID":"CZ063"},"id":"CZ063"},{"type":"Point","coordinates":[16.6384,49.2082],"properties":{"NUTS_ID":"CZ064","LEVL_CODE":3,"CNTR_CODE":"CZ","NUTS_NAME":"Jihomoravský kraj","NAME_LATN":"Jihomoravský kraj","FID":"CZ064"},"id":"CZ064"},{"type":"Point","coordinates":[17.2884,49.5775],"properties":{"NUTS_ID":"CZ071","LEVL_CODE":3,"CNTR_CODE":"CZ","NUTS_NAME":"Olomoucký kraj","NAME_LATN":"Olomoucký kraj","FID":"CZ071"},"id":"CZ071"},{"type":"Point","coordinates":[17.7492,49.1653],"properties":{"NUTS_ID":"CZ072","LEVL_CODE":3,"CNTR_CODE":"CZ","NUTS_NAME":"Zlínský kraj","NAME_LATN":"Zlínský kraj","FID":"CZ072"},"id":"CZ072"},{"type":"Point","coordinates":[18.0159,49.7986],"properties":{"NUTS_ID":"CZ080","LEVL_CODE":3,"CNTR_CODE":"CZ","NUTS_NAME":"Moravskoslezský kraj","NAME_LATN":"Moravskoslezský kraj","FID":"CZ080"},"id":"CZ080"},{"type":"Point","coordinates":[9.1769,48.7746],"properties":{"NUTS_ID":"DE111","LEVL_CODE":3,"CNTR_CODE":"DE","NUTS_NAME":"Stuttgart, Stadtkreis","NAME_LATN":"Stuttgart, Stadtkreis","FID":"DE111"},"id":"DE111"},{"type":"Point","coordinates":[8.958,48.7215],"properties":{"NUTS_ID":"DE112","LEVL_CODE":3,"CNTR_CODE":"DE","NUTS_NAME":"Böblingen","NAME_LATN":"Böblingen","FID":"DE112"},"id":"DE112"},{"type":"Point","coordinates":[9.3407,48.6569],"properties":{"NUTS_ID":"DE113","LEVL_CODE":3,"CNTR_CODE":"DE","NUTS_NAME":"Esslingen","NAME_LATN":"Esslingen","FID":"DE113"},"id":"DE113"},{"type":"Point","coordinates":[9.7385,48.6682],"properties":{"NUTS_ID":"DE114","LEVL_CODE":3,"CNTR_CODE":"DE","NUTS_NAME":"Göppingen","NAME_LATN":"Göppingen","FID":"DE114"},"id":"DE114"},{"type":"Point","coordinates":[9.1243,48.9406],"properties":{"NUTS_ID":"DE115","LEVL_CODE":3,"CNTR_CODE":"DE","NUTS_NAME":"Ludwigsburg","NAME_LATN":"Ludwigsburg","FID":"DE115"},"id":"DE115"},{"type":"Point","coordinates":[9.5023,48.9167],"properties":{"NUTS_ID":"DE116","LEVL_CODE":3,"CNTR_CODE":"DE","NUTS_NAME":"Rems-Murr-Kreis","NAME_LATN":"Rems-Murr-Kreis","FID":"DE116"},"id":"DE116"},{"type":"Point","coordinates":[9.1919,49.1481],"properties":{"NUTS_ID":"DE117","LEVL_CODE":3,"CNTR_CODE":"DE","NUTS_NAME":"Heilbronn, Stadtkreis","NAME_LATN":"Heilbronn, Stadtkreis","FID":"DE117"},"id":"DE117"},{"type":"Point","coordinates":[9.2798,49.2304],"properties":{"NUTS_ID":"DE118","LEVL_CODE":3,"CNTR_CODE":"DE","NUTS_NAME":"Heilbronn, Landkreis","NAME_LATN":"Heilbronn, Landkreis","FID":"DE118"},"id":"DE118"},{"type":"Point","coordinates":[9.6141,49.2715],"properties":{"NUTS_ID":"DE119","LEVL_CODE":3,"CNTR_CODE":"DE","NUTS_NAME":"Hohenlohekreis","NAME_LATN":"Hohenlohekreis","FID":"DE119"},"id":"DE119"},{"type":"Point","coordinates":[9.8807,49.1483],"properties":{"NUTS_ID":"DE11A","LEVL_CODE":3,"CNTR_CODE":"DE","NUTS_NAME":"Schwäbisch Hall","NAME_LATN":"Schwäbisch Hall","FID":"DE11A"},"id":"DE11A"},{"type":"Point","coordinates":[9.7304,49.5431],"properties":{"NUTS_ID":"DE11B","LEVL_CODE":3,"CNTR_CODE":"DE","NUTS_NAME":"Main-Tauber-Kreis","NAME_LATN":"Main-Tauber-Kreis","FID":"DE11B"},"id":"DE11B"},{"type":"Point","coordinates":[10.2077,48.6582],"properties":{"NUTS_ID":"DE11C","LEVL_CODE":3,"CNTR_CODE":"DE","NUTS_NAME":"Heidenheim","NAME_LATN":"Heidenheim","FID":"DE11C"},"id":"DE11C"},{"type":"Point","coordinates":[10.0375,48.905],"properties":{"NUTS_ID":"DE11D","LEVL_CODE":3,"CNTR_CODE":"DE","NUTS_NAME":"Ostalbkreis","NAME_LATN":"Ostalbkreis","FID":"DE11D"},"id":"DE11D"},{"type":"Point","coordinates":[8.2318,48.7485],"properties":{"NUTS_ID":"DE121","LEVL_CODE":3,"CNTR_CODE":"DE","NUTS_NAME":"Baden-Baden, Stadtkreis","NAME_LATN":"Baden-Baden, Stadtkreis","FID":"DE121"},"id":"DE121"},{"type":"Point","coordinates":[8.409,49.0116],"properties":{"NUTS_ID":"DE122","LEVL_CODE":3,"CNTR_CODE":"DE","NUTS_NAME":"Karlsruhe, Stadtkreis","NAME_LATN":"Karlsruhe, Stadtkreis","FID":"DE122"},"id":"DE122"},{"type":"Point","coordinates":[8.5732,49.1267],"properties":{"NUTS_ID":"DE123","LEVL_CODE":3,"CNTR_CODE":"DE","NUTS_NAME":"Karlsruhe, Landkreis","NAME_LATN":"Karlsruhe, Landkreis","FID":"DE123"},"id":"DE123"},{"type":"Point","coordinates":[8.2399,48.8508],"properties":{"NUTS_ID":"DE124","LEVL_CODE":3,"CNTR_CODE":"DE","NUTS_NAME":"Rastatt","NAME_LATN":"Rastatt","FID":"DE124"},"id":"DE124"},{"type":"Point","coordinates":[8.6839,49.402],"properties":{"NUTS_ID":"DE125","LEVL_CODE":3,"CNTR_CODE":"DE","NUTS_NAME":"Heidelberg, Stadtkreis","NAME_LATN":"Heidelberg, Stadtkreis","FID":"DE125"},"id":"DE125"},{"type":"Point","coordinates":[8.5003,49.4994],"properties":{"NUTS_ID":"DE126","LEVL_CODE":3,"CNTR_CODE":"DE","NUTS_NAME":"Mannheim, Stadtkreis","NAME_LATN":"Mannheim, Stadtkreis","FID":"DE126"},"id":"DE126"},{"type":"Point","coordinates":[9.2698,49.4696],"properties":{"NUTS_ID":"DE127","LEVL_CODE":3,"CNTR_CODE":"DE","NUTS_NAME":"Neckar-Odenwald-Kreis","NAME_LATN":"Neckar-Odenwald-Kreis","FID":"DE127"},"id":"DE127"},{"type":"Point","coordinates":[8.7706,49.2911],"properties":{"NUTS_ID":"DE128","LEVL_CODE":3,"CNTR_CODE":"DE","NUTS_NAME":"Rhein-Neckar-Kreis","NAME_LATN":"Rhein-Neckar-Kreis","FID":"DE128"},"id":"DE128"},{"type":"Point","coordinates":[8.7182,48.8729],"properties":{"NUTS_ID":"DE129","LEVL_CODE":3,"CNTR_CODE":"DE","NUTS_NAME":"Pforzheim, Stadtkreis","NAME_LATN":"Pforzheim, Stadtkreis","FID":"DE129"},"id":"DE129"},{"type":"Point","coordinates":[8.6324,48.6624],"properties":{"NUTS_ID":"DE12A","LEVL_CODE":3,"CNTR_CODE":"DE","NUTS_NAME":"Calw","NAME_LATN":"Calw","FID":"DE12A"},"id":"DE12A"},{"type":"Point","coordinates":[8.8067,48.957],"properties":{"NUTS_ID":"DE12B","LEVL_CODE":3,"CNTR_CODE":"DE","NUTS_NAME":"Enzkreis","NAME_LATN":"Enzkreis","FID":"DE12B"},"id":"DE12B"},{"type":"Point","coordinates":[8.4653,48.4744],"properties":{"NUTS_ID":"DE12C","LEVL_CODE":3,"CNTR_CODE":"DE","NUTS_NAME":"Freudenstadt","NAME_LATN":"Freudenstadt","FID":"DE12C"},"id":"DE12C"},{"type":"Point","coordinates":[7.7951,48.0062],"properties":{"NUTS_ID":"DE131","LEVL_CODE":3,"CNTR_CODE":"DE","NUTS_NAME":"Freiburg im Breisgau, Stadtkreis","NAME_LATN":"Freiburg im Breisgau, Stadtkreis","FID":"DE131"},"id":"DE131"},{"type":"Point","coordinates":[7.9789,47.9643],"properties":{"NUTS_ID":"DE132","LEVL_CODE":3,"CNTR_CODE":"DE","NUTS_NAME":"Breisgau-Hochschwarzwald","NAME_LATN":"Breisgau-Hochschwarzwald","FID":"DE132"},"id":"DE132"},{"type":"Point","coordinates":[7.8829,48.1389],"properties":{"NUTS_ID":"DE133","LEVL_CODE":3,"CNTR_CODE":"DE","NUTS_NAME":"Emmendingen","NAME_LATN":"Emmendingen","FID":"DE133"},"id":"DE133"},{"type":"Point","coordinates":[7.9978,48.4586],"properties":{"NUTS_ID":"DE134","LEVL_CODE":3,"CNTR_CODE":"DE","NUTS_NAME":"Ortenaukreis","NAME_LATN":"Ortenaukreis","FID":"DE134"},"id":"DE134"},{"type":"Point","coordinates":[8.5137,48.2761],"properties":{"NUTS_ID":"DE135","LEVL_CODE":3,"CNTR_CODE":"DE","NUTS_NAME":"Rottweil","NAME_LATN":"Rottweil","FID":"DE135"},"id":"DE135"},{"type":"Point","coordinates":[8.3859,48.0427],"properties":{"NUTS_ID":"DE136","LEVL_CODE":3,"CNTR_CODE":"DE","NUTS_NAME":"Schwarzwald-Baar-Kreis","NAME_LATN":"Schwarzwald-Baar-Kreis","FID":"DE136"},"id":"DE136"},{"type":"Point","coordinates":[8.7941,48.0112],"properties":{"NUTS_ID":"DE137","LEVL_CODE":3,"CNTR_CODE":"DE","NUTS_NAME":"Tuttlingen","NAME_LATN":"Tuttlingen","FID":"DE137"},"id":"DE137"},{"type":"Point","coordinates":[8.9333,47.7901],"properties":{"NUTS_ID":"DE138","LEVL_CODE":3,"CNTR_CODE":"DE","NUTS_NAME":"Konstanz","NAME_LATN":"Konstanz","FID":"DE138"},"id":"DE138"},{"type":"Point","coordinates":[7.7712,47.6727],"properties":{"NUTS_ID":"DE139","LEVL_CODE":3,"CNTR_CODE":"DE","NUTS_NAME":"Lörrach","NAME_LATN":"Lörrach","FID":"DE139"},"id":"DE139"},{"type":"Point","coordinates":[8.2474,47.7244],"properties":{"NUTS_ID":"DE13A","LEVL_CODE":3,"CNTR_CODE":"DE","NUTS_NAME":"Waldshut","NAME_LATN":"Waldshut","FID":"DE13A"},"id":"DE13A"},{"type":"Point","coordinates":[9.3661,48.4065],"properties":{"NUTS_ID":"DE141","LEVL_CODE":3,"CNTR_CODE":"DE","NUTS_NAME":"Reutlingen","NAME_LATN":"Reutlingen","FID":"DE141"},"id":"DE141"},{"type":"Point","coordinates":[8.9664,48.486],"properties":{"NUTS_ID":"DE142","LEVL_CODE":3,"CNTR_CODE":"DE","NUTS_NAME":"Tübingen, Landkreis","NAME_LATN":"Tübingen, Landkreis","FID":"DE142"},"id":"DE142"},{"type":"Point","coordinates":[8.9363,48.2472],"properties":{"NUTS_ID":"DE143","LEVL_CODE":3,"CNTR_CODE":"DE","NUTS_NAME":"Zollernalbkreis","NAME_LATN":"Zollernalbkreis","FID":"DE143"},"id":"DE143"},{"type":"Point","coordinates":[9.9431,48.3814],"properties":{"NUTS_ID":"DE144","LEVL_CODE":3,"CNTR_CODE":"DE","NUTS_NAME":"Ulm, Stadtkreis","NAME_LATN":"Ulm, Stadtkreis","FID":"DE144"},"id":"DE144"},{"type":"Point","coordinates":[9.7701,48.4263],"properties":{"NUTS_ID":"DE145","LEVL_CODE":3,"CNTR_CODE":"DE","NUTS_NAME":"Alb-Donau-Kreis","NAME_LATN":"Alb-Donau-Kreis","FID":"DE145"},"id":"DE145"},{"type":"Point","coordinates":[9.7027,48.0784],"properties":{"NUTS_ID":"DE146","LEVL_CODE":3,"CNTR_CODE":"DE","NUTS_NAME":"Biberach","NAME_LATN":"Biberach","FID":"DE146"},"id":"DE146"},{"type":"Point","coordinates":[9.4049,47.7151],"properties":{"NUTS_ID":"DE147","LEVL_CODE":3,"CNTR_CODE":"DE","NUTS_NAME":"Bodenseekreis","NAME_LATN":"Bodenseekreis","FID":"DE147"},"id":"DE147"},{"type":"Point","coordinates":[9.7588,47.795],"properties":{"NUTS_ID":"DE148","LEVL_CODE":3,"CNTR_CODE":"DE","NUTS_NAME":"Ravensburg","NAME_LATN":"Ravensburg","FID":"DE148"},"id":"DE148"},{"type":"Point","coordinates":[9.27,48.0088],"properties":{"NUTS_ID":"DE149","LEVL_CODE":3,"CNTR_CODE":"DE","NUTS_NAME":"Sigmaringen","NAME_LATN":"Sigmaringen","FID":"DE149"},"id":"DE149"},{"type":"Point","coordinates":[11.4105,48.7502],"properties":{"NUTS_ID":"DE211","LEVL_CODE":3,"CNTR_CODE":"DE","NUTS_NAME":"Ingolstadt, Kreisfreie Stadt","NAME_LATN":"Ingolstadt, Kreisfreie Stadt","FID":"DE211"},"id":"DE211"},{"type":"Point","coordinates":[11.5422,48.1533],"properties":{"NUTS_ID":"DE212","LEVL_CODE":3,"CNTR_CODE":"DE","NUTS_NAME":"München, Kreisfreie Stadt","NAME_LATN":"München, Kreisfreie Stadt","FID":"DE212"},"id":"DE212"},{"type":"Point","coordinates":[12.1043,47.8475],"properties":{"NUTS_ID":"DE213","LEVL_CODE":3,"CNTR_CODE":"DE","NUTS_NAME":"Rosenheim, Kreisfreie Stadt","NAME_LATN":"Rosenheim, Kreisfreie Stadt","FID":"DE213"},"id":"DE213"},{"type":"Point","coordinates":[12.7457,48.2176],"properties":{"NUTS_ID":"DE214","LEVL_CODE":3,"CNTR_CODE":"DE","NUTS_NAME":"Altötting","NAME_LATN":"Altötting","FID":"DE214"},"id":"DE214"},{"type":"Point","coordinates":[12.8778,47.6539],"properties":{"NUTS_ID":"DE215","LEVL_CODE":3,"CNTR_CODE":"DE","NUTS_NAME":"Berchtesgadener Land","NAME_LATN":"Berchtesgadener Land","FID":"DE215"},"id":"DE215"},{"type":"Point","coordinates":[11.4751,47.7414],"properties":{"NUTS_ID":"DE216","LEVL_CODE":3,"CNTR_CODE":"DE","NUTS_NAME":"Bad Tölz-Wolfratshausen","NAME_LATN":"Bad Tölz-Wolfratshausen","FID":"DE216"},"id":"DE216"},{"type":"Point","coordinates":[11.3473,48.3401],"properties":{"NUTS_ID":"DE217","LEVL_CODE":3,"CNTR_CODE":"DE","NUTS_NAME":"Dachau","NAME_LATN":"Dachau","FID":"DE217"},"id":"DE217"},{"type":"Point","coordinates":[11.9238,48.054],"properties":{"NUTS_ID":"DE218","LEVL_CODE":3,"CNTR_CODE":"DE","NUTS_NAME":"Ebersberg","NAME_LATN":"Ebersberg","FID":"DE218"},"id":"DE218"},{"type":"Point","coordinates":[11.341,48.8991],"properties":{"NUTS_ID":"DE219","LEVL_CODE":3,"CNTR_CODE":"DE","NUTS_NAME":"Eichstätt","NAME_LATN":"Eichstätt","FID":"DE219"},"id":"DE219"},{"type":"Point","coordinates":[11.9933,48.298],"properties":{"NUTS_ID":"DE21A","LEVL_CODE":3,"CNTR_CODE":"DE","NUTS_NAME":"Erding","NAME_LATN":"Erding","FID":"DE21A"},"id":"DE21A"},{"type":"Point","coordinates":[11.7565,48.4484],"properties":{"NUTS_ID":"DE21B","LEVL_CODE":3,"CNTR_CODE":"DE","NUTS_NAME":"Freising","NAME_LATN":"Freising","FID":"DE21B"},"id":"DE21B"},{"type":"Point","coordinates":[11.2038,48.1964],"properties":{"NUTS_ID":"DE21C","LEVL_CODE":3,"CNTR_CODE":"DE","NUTS_NAME":"Fürstenfeldbruck","NAME_LATN":"Fürstenfeldbruck","FID":"DE21C"},"id":"DE21C"},{"type":"Point","coordinates":[11.1478,47.5732],"properties":{"NUTS_ID":"DE21D","LEVL_CODE":3,"CNTR_CODE":"DE","NUTS_NAME":"Garmisch-Partenkirchen","NAME_LATN":"Garmisch-Partenkirchen","FID":"DE21D"},"id":"DE21D"},{"type":"Point","coordinates":[10.961,48.0311],"properties":{"NUTS_ID":"DE21E","LEVL_CODE":3,"CNTR_CODE":"DE","NUTS_NAME":"Landsberg a. Lech","NAME_LATN":"Landsberg a. Lech","FID":"DE21E"},"id":"DE21E"},{"type":"Point","coordinates":[11.8345,47.7312],"properties":{"NUTS_ID":"DE21F","LEVL_CODE":3,"CNTR_CODE":"DE","NUTS_NAME":"Miesbach","NAME_LATN":"Miesbach","FID":"DE21F"},"id":"DE21F"},{"type":"Point","coordinates":[12.318,48.2137],"properties":{"NUTS_ID":"DE21G","LEVL_CODE":3,"CNTR_CODE":"DE","NUTS_NAME":"Mühldorf a. Inn","NAME_LATN":"Mühldorf a. Inn","FID":"DE21G"},"id":"DE21G"},{"type":"Point","coordinates":[11.6181,48.0041],"properties":{"NUTS_ID":"DE21H","LEVL_CODE":3,"CNTR_CODE":"DE","NUTS_NAME":"München, Landkreis","NAME_LATN":"München, Landkreis","FID":"DE21H"},"id":"DE21H"},{"type":"Point","coordinates":[11.2007,48.6595],"properties":{"NUTS_ID":"DE21I","LEVL_CODE":3,"CNTR_CODE":"DE","NUTS_NAME":"Neuburg-Schrobenhausen","NAME_LATN":"Neuburg-Schrobenhausen","FID":"DE21I"},"id":"DE21I"},{"type":"Point","coordinates":[11.5056,48.5878],"properties":{"NUTS_ID":"DE21J","LEVL_CODE":3,"CNTR_CODE":"DE","NUTS_NAME":"Pfaffenhofen a. d. Ilm","NAME_LATN":"Pfaffenhofen a. d. Ilm","FID":"DE21J"},"id":"DE21J"},{"type":"Point","coordinates":[12.2,47.9148],"properties":{"NUTS_ID":"DE21K","LEVL_CODE":3,"CNTR_CODE":"DE","NUTS_NAME":"Rosenheim, Landkreis","NAME_LATN":"Rosenheim, Landkreis","FID":"DE21K"},"id":"DE21K"},{"type":"Point","coordinates":[11.2813,48.0073],"properties":{"NUTS_ID":"DE21L","LEVL_CODE":3,"CNTR_CODE":"DE","NUTS_NAME":"Starnberg","NAME_LATN":"Starnberg","FID":"DE21L"},"id":"DE21L"},{"type":"Point","coordinates":[12.5993,47.8603],"properties":{"NUTS_ID":"DE21M","LEVL_CODE":3,"CNTR_CODE":"DE","NUTS_NAME":"Traunstein","NAME_LATN":"Traunstein","FID":"DE21M"},"id":"DE21M"},{"type":"Point","coordinates":[11.0748,47.8154],"properties":{"NUTS_ID":"DE21N","LEVL_CODE":3,"CNTR_CODE":"DE","NUTS_NAME":"Weilheim-Schongau","NAME_LATN":"Weilheim-Schongau","FID":"DE21N"},"id":"DE21N"},{"type":"Point","coordinates":[12.1514,48.5372],"properties":{"NUTS_ID":"DE221","LEVL_CODE":3,"CNTR_CODE":"DE","NUTS_NAME":"Landshut, Kreisfreie Stadt","NAME_LATN":"Landshut, Kreisfreie Stadt","FID":"DE221"},"id":"DE221"},{"type":"Point","coordinates":[13.4067,48.5731],"properties":{"NUTS_ID":"DE222","LEVL_CODE":3,"CNTR_CODE":"DE","NUTS_NAME":"Passau, Kreisfreie Stadt","NAME_LATN":"Passau, Kreisfreie Stadt","FID":"DE222"},"id":"DE222"},{"type":"Point","coordinates":[12.574,48.8823],"properties":{"NUTS_ID":"DE223","LEVL_CODE":3,"CNTR_CODE":"DE","NUTS_NAME":"Straubing, Kreisfreie Stadt","NAME_LATN":"Straubing, Kreisfreie Stadt","FID":"DE223"},"id":"DE223"},{"type":"Point","coordinates":[13.0033,48.7605],"properties":{"NUTS_ID":"DE224","LEVL_CODE":3,"CNTR_CODE":"DE","NUTS_NAME":"Deggendorf","NAME_LATN":"Deggendorf","FID":"DE224"},"id":"DE224"},{"type":"Point","coordinates":[13.5079,48.8489],"properties":{"NUTS_ID":"DE225","LEVL_CODE":3,"CNTR_CODE":"DE","NUTS_NAME":"Freyung-Grafenau","NAME_LATN":"Freyung-Grafenau","FID":"DE225"},"id":"DE225"},{"type":"Point","coordinates":[11.8602,48.8007],"properties":{"NUTS_ID":"DE226","LEVL_CODE":3,"CNTR_CODE":"DE","NUTS_NAME":"Kelheim","NAME_LATN":"Kelheim","FID":"DE226"},"id":"DE226"},{"type":"Point","coordinates":[12.1886,48.4619],"properties":{"NUTS_ID":"DE227","LEVL_CODE":3,"CNTR_CODE":"DE","NUTS_NAME":"Landshut, Landkreis","NAME_LATN":"Landshut, Landkreis","FID":"DE227"},"id":"DE227"},{"type":"Point","coordinates":[13.2197,48.5801],"properties":{"NUTS_ID":"DE228","LEVL_CODE":3,"CNTR_CODE":"DE","NUTS_NAME":"Passau, Landkreis","NAME_LATN":"Passau, Landkreis","FID":"DE228"},"id":"DE228"},{"type":"Point","coordinates":[13.0876,49.0005],"properties":{"NUTS_ID":"DE229","LEVL_CODE":3,"CNTR_CODE":"DE","NUTS_NAME":"Regen","NAME_LATN":"Regen","FID":"DE229"},"id":"DE229"},{"type":"Point","coordinates":[12.8281,48.4522],"properties":{"NUTS_ID":"DE22A","LEVL_CODE":3,"CNTR_CODE":"DE","NUTS_NAME":"Rottal-Inn","NAME_LATN":"Rottal-Inn","FID":"DE22A"},"id":"DE22A"},{"type":"Point","coordinates":[12.5059,48.8064],"properties":{"NUTS_ID":"DE22B","LEVL_CODE":3,"CNTR_CODE":"DE","NUTS_NAME":"Straubing-Bogen","NAME_LATN":"Straubing-Bogen","FID":"DE22B"},"id":"DE22B"},{"type":"Point","coordinates":[12.6436,48.6153],"properties":{"NUTS_ID":"DE22C","LEVL_CODE":3,"CNTR_CODE":"DE","NUTS_NAME":"Dingolfing-Landau","NAME_LATN":"Dingolfing-Landau","FID":"DE22C"},"id":"DE22C"},{"type":"Point","coordinates":[11.8458,49.4486],"properties":{"NUTS_ID":"DE231","LEVL_CODE":3,"CNTR_CODE":"DE","NUTS_NAME":"Amberg, Kreisfreie Stadt","NAME_LATN":"Amberg, Kreisfreie Stadt","FID":"DE231"},"id":"DE231"},{"type":"Point","coordinates":[12.1109,49.0179],"properties":{"NUTS_ID":"DE232","LEVL_CODE":3,"CNTR_CODE":"DE","NUTS_NAME":"Regensburg, Kreisfreie Stadt","NAME_LATN":"Regensburg, Kreisfreie Stadt","FID":"DE232"},"id":"DE232"},{"type":"Point","coordinates":[12.1657,49.6817],"properties":{"NUTS_ID":"DE233","LEVL_CODE":3,"CNTR_CODE":"DE","NUTS_NAME":"Weiden i. d. Opf, Kreisfreie Stadt","NAME_LATN":"Weiden i. d. Opf, Kreisfreie Stadt","FID":"DE233"},"id":"DE233"},{"type":"Point","coordinates":[11.8079,49.3588],"properties":{"NUTS_ID":"DE234","LEVL_CODE":3,"CNTR_CODE":"DE","NUTS_NAME":"Amberg-Sulzbach","NAME_LATN":"Amberg-Sulzbach","FID":"DE234"},"id":"DE234"},{"type":"Point","coordinates":[12.7431,49.2587],"properties":{"NUTS_ID":"DE235","LEVL_CODE":3,"CNTR_CODE":"DE","NUTS_NAME":"Cham","NAME_LATN":"Cham","FID":"DE235"},"id":"DE235"},{"type":"Point","coordinates":[11.5666,49.2159],"properties":{"NUTS_ID":"DE236","LEVL_CODE":3,"CNTR_CODE":"DE","NUTS_NAME":"Neumarkt i. d. OPf.","NAME_LATN":"Neumarkt i. d. OPf.","FID":"DE236"},"id":"DE236"},{"type":"Point","coordinates":[12.1102,49.6035],"properties":{"NUTS_ID":"DE237","LEVL_CODE":3,"CNTR_CODE":"DE","NUTS_NAME":"Neustadt a. d. Waldnaab","NAME_LATN":"Neustadt a. d. Waldnaab","FID":"DE237"},"id":"DE237"},{"type":"Point","coordinates":[12.3186,49.0083],"properties":{"NUTS_ID":"DE238","LEVL_CODE":3,"CNTR_CODE":"DE","NUTS_NAME":"Regensburg, Landkreis","NAME_LATN":"Regensburg, Landkreis","FID":"DE238"},"id":"DE238"},{"type":"Point","coordinates":[12.2537,49.3672],"properties":{"NUTS_ID":"DE239","LEVL_CODE":3,"CNTR_CODE":"DE","NUTS_NAME":"Schwandorf","NAME_LATN":"Schwandorf","FID":"DE239"},"id":"DE239"},{"type":"Point","coordinates":[12.1812,49.9231],"properties":{"NUTS_ID":"DE23A","LEVL_CODE":3,"CNTR_CODE":"DE","NUTS_NAME":"Tirschenreuth","NAME_LATN":"Tirschenreuth","FID":"DE23A"},"id":"DE23A"},{"type":"Point","coordinates":[10.8935,49.8867],"properties":{"NUTS_ID":"DE241","LEVL_CODE":3,"CNTR_CODE":"DE","NUTS_NAME":"Bamberg, Kreisfreie Stadt","NAME_LATN":"Bamberg, Kreisfreie Stadt","FID":"DE241"},"id":"DE241"},{"type":"Point","coordinates":[11.5837,49.9338],"properties":{"NUTS_ID":"DE242","LEVL_CODE":3,"CNTR_CODE":"DE","NUTS_NAME":"Bayreuth, Kreisfreie Stadt","NAME_LATN":"Bayreuth, Kreisfreie Stadt","FID":"DE242"},"id":"DE242"},{"type":"Point","coordinates":[10.9753,50.2579],"properties":{"NUTS_ID":"DE243","LEVL_CODE":3,"CNTR_CODE":"DE","NUTS_NAME":"Coburg, Kreisfreie Stadt","NAME_LATN":"Coburg, Kreisfreie Stadt","FID":"DE243"},"id":"DE243"},{"type":"Point","coordinates":[11.8895,50.3078],"properties":{"NUTS_ID":"DE244","LEVL_CODE":3,"CNTR_CODE":"DE","NUTS_NAME":"Hof, Kreisfreie Stadt","NAME_LATN":"Hof, Kreisfreie Stadt","FID":"DE244"},"id":"DE244"},{"type":"Point","coordinates":[10.8441,49.8141],"properties":{"NUTS_ID":"DE245","LEVL_CODE":3,"CNTR_CODE":"DE","NUTS_NAME":"Bamberg, Landkreis","NAME_LATN":"Bamberg, Landkreis","FID":"DE245"},"id":"DE245"},{"type":"Point","coordinates":[11.5387,49.7819],"properties":{"NUTS_ID":"DE246","LEVL_CODE":3,"CNTR_CODE":"DE","NUTS_NAME":"Bayreuth, Landkreis","NAME_LATN":"Bayreuth, Landkreis","FID":"DE246"},"id":"DE246"},{"type":"Point","coordinates":[10.8672,50.2126],"properties":{"NUTS_ID":"DE247","LEVL_CODE":3,"CNTR_CODE":"DE","NUTS_NAME":"Coburg, Landkreis","NAME_LATN":"Coburg, Landkreis","FID":"DE247"},"id":"DE247"},{"type":"Point","coordinates":[11.1497,49.7167],"properties":{"NUTS_ID":"DE248","LEVL_CODE":3,"CNTR_CODE":"DE","NUTS_NAME":"Forchheim","NAME_LATN":"Forchheim","FID":"DE248"},"id":"DE248"},{"type":"Point","coordinates":[11.8429,50.2025],"properties":{"NUTS_ID":"DE249","LEVL_CODE":3,"CNTR_CODE":"DE","NUTS_NAME":"Hof, Landkreis","NAME_LATN":"Hof, Landkreis","FID":"DE249"},"id":"DE249"},{"type":"Point","coordinates":[11.372,50.328],"properties":{"NUTS_ID":"DE24A","LEVL_CODE":3,"CNTR_CODE":"DE","NUTS_NAME":"Kronach","NAME_LATN":"Kronach","FID":"DE24A"},"id":"DE24A"},{"type":"Point","coordinates":[11.4711,50.1088],"properties":{"NUTS_ID":"DE24B","LEVL_CODE":3,"CNTR_CODE":"DE","NUTS_NAME":"Kulmbach","NAME_LATN":"Kulmbach","FID":"DE24B"},"id":"DE24B"},{"type":"Point","coordinates":[11.1191,50.1198],"properties":{"NUTS_ID":"DE24C","LEVL_CODE":3,"CNTR_CODE":"DE","NUTS_NAME":"Lichtenfels","NAME_LATN":"Lichtenfels","FID":"DE24C"},"id":"DE24C"},{"type":"Point","coordinates":[12.0419,50.0902],"properties":{"NUTS_ID":"DE24D","LEVL_CODE":3,"CNTR_CODE":"DE","NUTS_NAME":"Wunsiedel i. Fichtelgebirge","NAME_LATN":"Wunsiedel i. Fichtelgebirge","FID":"DE24D"},"id":"DE24D"},{"type":"Point","coordinates":[10.5555,49.2991],"properties":{"NUTS_ID":"DE251","LEVL_CODE":3,"CNTR_CODE":"DE","NUTS_NAME":"Ansbach, Kreisfreie Stadt","NAME_LATN":"Ansbach, Kreisfreie Stadt","FID":"DE251"},"id":"DE251"},{"type":"Point","coordinates":[10.9842,49.5765],"properties":{"NUTS_ID":"DE252","LEVL_CODE":3,"CNTR_CODE":"DE","NUTS_NAME":"Erlangen, Kreisfreie Stadt","NAME_LATN":"Erlangen, Kreisfreie Stadt","FID":"DE252"},"id":"DE252"},{"type":"Point","coordinates":[10.9608,49.4957],"properties":{"NUTS_ID":"DE253","LEVL_CODE":3,"CNTR_CODE":"DE","NUTS_NAME":"Fürth, Kreisfreie Stadt","NAME_LATN":"Fürth, Kreisfreie Stadt","FID":"DE253"},"id":"DE253"},{"type":"Point","coordinates":[11.0998,49.4289],"properties":{"NUTS_ID":"DE254","LEVL_CODE":3,"CNTR_CODE":"DE","NUTS_NAME":"Nürnberg, Kreisfreie Stadt","NAME_LATN":"Nürnberg, Kreisfreie Stadt","FID":"DE254"},"id":"DE254"},{"type":"Point","coordinates":[11.0286,49.3321],"properties":{"NUTS_ID":"DE255","LEVL_CODE":3,"CNTR_CODE":"DE","NUTS_NAME":"Schwabach, Kreisfreie Stadt","NAME_LATN":"Schwabach, Kreisfreie Stadt","FID":"DE255"},"id":"DE255"},{"type":"Point","coordinates":[10.5027,49.1362],"properties":{"NUTS_ID":"DE256","LEVL_CODE":3,"CNTR_CODE":"DE","NUTS_NAME":"Ansbach, Landkreis","NAME_LATN":"Ansbach, Landkreis","FID":"DE256"},"id":"DE256"},{"type":"Point","coordinates":[10.941,49.6697],"properties":{"NUTS_ID":"DE257","LEVL_CODE":3,"CNTR_CODE":"DE","NUTS_NAME":"Erlangen-Höchstadt","NAME_LATN":"Erlangen-Höchstadt","FID":"DE257"},"id":"DE257"},{"type":"Point","coordinates":[10.8535,49.4506],"properties":{"NUTS_ID":"DE258","LEVL_CODE":3,"CNTR_CODE":"DE","NUTS_NAME":"Fürth, Landkreis","NAME_LATN":"Fürth, Landkreis","FID":"DE258"},"id":"DE258"},{"type":"Point","coordinates":[11.3634,49.4924],"properties":{"NUTS_ID":"DE259","LEVL_CODE":3,"CNTR_CODE":"DE","NUTS_NAME":"Nürnberger Land","NAME_LATN":"Nürnberger Land","FID":"DE259"},"id":"DE259"},{"type":"Point","coordinates":[10.4458,49.5836],"properties":{"NUTS_ID":"DE25A","LEVL_CODE":3,"CNTR_CODE":"DE","NUTS_NAME":"Neustadt a. d. Aisch-Bad Windsheim","NAME_LATN":"Neustadt a. d. Aisch-Bad Windsheim","FID":"DE25A"},"id":"DE25A"},{"type":"Point","coordinates":[11.1349,49.238],"properties":{"NUTS_ID":"DE25B","LEVL_CODE":3,"CNTR_CODE":"DE","NUTS_NAME":"Roth","NAME_LATN":"Roth","FID":"DE25B"},"id":"DE25B"},{"type":"Point","coordinates":[10.9156,49.0073],"properties":{"NUTS_ID":"DE25C","LEVL_CODE":3,"CNTR_CODE":"DE","NUTS_NAME":"Weißenburg-Gunzenhausen","NAME_LATN":"Weißenburg-Gunzenhausen","FID":"DE25C"},"id":"DE25C"},{"type":"Point","coordinates":[9.1592,49.9612],"properties":{"NUTS_ID":"DE261","LEVL_CODE":3,"CNTR_CODE":"DE","NUTS_NAME":"Aschaffenburg, Kreisfreie Stadt","NAME_LATN":"Aschaffenburg, Kreisfreie Stadt","FID":"DE261"},"id":"DE261"},{"type":"Point","coordinates":[10.2199,50.0387],"properties":{"NUTS_ID":"DE262","LEVL_CODE":3,"CNTR_CODE":"DE","NUTS_NAME":"Schweinfurt, Kreisfreie Stadt","NAME_LATN":"Schweinfurt, Kreisfreie Stadt","FID":"DE262"},"id":"DE262"},{"type":"Point","coordinates":[9.9431,49.7771],"properties":{"NUTS_ID":"DE263","LEVL_CODE":3,"CNTR_CODE":"DE","NUTS_NAME":"Würzburg, Kreisfreie Stadt","NAME_LATN":"Würzburg, Kreisfreie Stadt","FID":"DE263"},"id":"DE263"},{"type":"Point","coordinates":[9.2308,50.0447],"properties":{"NUTS_ID":"DE264","LEVL_CODE":3,"CNTR_CODE":"DE","NUTS_NAME":"Aschaffenburg, Landkreis","NAME_LATN":"Aschaffenburg, Landkreis","FID":"DE264"},"id":"DE264"},{"type":"Point","coordinates":[9.9966,50.2097],"properties":{"NUTS_ID":"DE265","LEVL_CODE":3,"CNTR_CODE":"DE","NUTS_NAME":"Bad Kissingen","NAME_LATN":"Bad Kissingen","FID":"DE265"},"id":"DE265"},{"type":"Point","coordinates":[10.2668,50.3945],"properties":{"NUTS_ID":"DE266","LEVL_CODE":3,"CNTR_CODE":"DE","NUTS_NAME":"Rhön-Grabfeld","NAME_LATN":"Rhön-Grabfeld","FID":"DE266"},"id":"DE266"},{"type":"Point","coordinates":[10.607,50.0629],"properties":{"NUTS_ID":"DE267","LEVL_CODE":3,"CNTR_CODE":"DE","NUTS_NAME":"Haßberge","NAME_LATN":"Haßberge","FID":"DE267"},"id":"DE267"},{"type":"Point","coordinates":[10.2974,49.7475],"properties":{"NUTS_ID":"DE268","LEVL_CODE":3,"CNTR_CODE":"DE","NUTS_NAME":"Kitzingen","NAME_LATN":"Kitzingen","FID":"DE268"},"id":"DE268"},{"type":"Point","coordinates":[9.2584,49.7261],"properties":{"NUTS_ID":"DE269","LEVL_CODE":3,"CNTR_CODE":"DE","NUTS_NAME":"Miltenberg","NAME_LATN":"Miltenberg","FID":"DE269"},"id":"DE269"},{"type":"Point","coordinates":[9.71,50.0063],"properties":{"NUTS_ID":"DE26A","LEVL_CODE":3,"CNTR_CODE":"DE","NUTS_NAME":"Main-Spessart","NAME_LATN":"Main-Spessart","FID":"DE26A"},"id":"DE26A"},{"type":"Point","coordinates":[10.2446,49.9496],"properties":{"NUTS_ID":"DE26B","LEVL_CODE":3,"CNTR_CODE":"DE","NUTS_NAME":"Schweinfurt, Landkreis","NAME_LATN":"Schweinfurt, Landkreis","FID":"DE26B"},"id":"DE26B"},{"type":"Point","coordinates":[9.9709,49.6797],"properties":{"NUTS_ID":"DE26C","LEVL_CODE":3,"CNTR_CODE":"DE","NUTS_NAME":"Würzburg, Landkreis","NAME_LATN":"Würzburg, Landkreis","FID":"DE26C"},"id":"DE26C"},{"type":"Point","coordinates":[10.8855,48.3455],"properties":{"NUTS_ID":"DE271","LEVL_CODE":3,"CNTR_CODE":"DE","NUTS_NAME":"Augsburg, Kreisfreie Stadt","NAME_LATN":"Augsburg, Kreisfreie Stadt","FID":"DE271"},"id":"DE271"},{"type":"Point","coordinates":[10.6064,47.8809],"properties":{"NUTS_ID":"DE272","LEVL_CODE":3,"CNTR_CODE":"DE","NUTS_NAME":"Kaufbeuren, Kreisfreie Stadt","NAME_LATN":"Kaufbeuren, Kreisfreie Stadt","FID":"DE272"},"id":"DE272"},{"type":"Point","coordinates":[10.3053,47.7333],"properties":{"NUTS_ID":"DE273","LEVL_CODE":3,"CNTR_CODE":"DE","NUTS_NAME":"Kempten (Allgäu), Kreisfreie Stadt","NAME_LATN":"Kempten (Allgäu), Kreisfreie Stadt","FID":"DE273"},"id":"DE273"},{"type":"Point","coordinates":[10.163,47.9788],"properties":{"NUTS_ID":"DE274","LEVL_CODE":3,"CNTR_CODE":"DE","NUTS_NAME":"Memmingen, Kreisfreie Stadt","NAME_LATN":"Memmingen, Kreisfreie Stadt","FID":"DE274"},"id":"DE274"},{"type":"Point","coordinates":[11.0867,48.4386],"properties":{"NUTS_ID":"DE275","LEVL_CODE":3,"CNTR_CODE":"DE","NUTS_NAME":"Aichach-Friedberg","NAME_LATN":"Aichach-Friedberg","FID":"DE275"},"id":"DE275"},{"type":"Point","coordinates":[10.6932,48.3114],"properties":{"NUTS_ID":"DE276","LEVL_CODE":3,"CNTR_CODE":"DE","NUTS_NAME":"Augsburg, Landkreis","NAME_LATN":"Augsburg, Landkreis","FID":"DE276"},"id":"DE276"},{"type":"Point","coordinates":[10.5199,48.6095],"properties":{"NUTS_ID":"DE277","LEVL_CODE":3,"CNTR_CODE":"DE","NUTS_NAME":"Dillingen a.d. Donau","NAME_LATN":"Dillingen a.d. Donau","FID":"DE277"},"id":"DE277"},{"type":"Point","coordinates":[10.3668,48.3287],"properties":{"NUTS_ID":"DE278","LEVL_CODE":3,"CNTR_CODE":"DE","NUTS_NAME":"Günzburg","NAME_LATN":"Günzburg","FID":"DE278"},"id":"DE278"},{"type":"Point","coordinates":[10.1414,48.2775],"properties":{"NUTS_ID":"DE279","LEVL_CODE":3,"CNTR_CODE":"DE","NUTS_NAME":"Neu-Ulm","NAME_LATN":"Neu-Ulm","FID":"DE279"},"id":"DE279"},{"type":"Point","coordinates":[9.8701,47.6134],"properties":{"NUTS_ID":"DE27A","LEVL_CODE":3,"CNTR_CODE":"DE","NUTS_NAME":"Lindau (Bodensee)","NAME_LATN":"Lindau (Bodensee)","FID":"DE27A"},"id":"DE27A"},{"type":"Point","coordinates":[10.6405,47.7066],"properties":{"NUTS_ID":"DE27B","LEVL_CODE":3,"CNTR_CODE":"DE","NUTS_NAME":"Ostallgäu","NAME_LATN":"Ostallgäu","FID":"DE27B"},"id":"DE27B"},{"type":"Point","coordinates":[10.3923,48.0423],"properties":{"NUTS_ID":"DE27C","LEVL_CODE":3,"CNTR_CODE":"DE","NUTS_NAME":"Unterallgäu","NAME_LATN":"Unterallgäu","FID":"DE27C"},"id":"DE27C"},{"type":"Point","coordinates":[10.7223,48.7794],"properties":{"NUTS_ID":"DE27D","LEVL_CODE":3,"CNTR_CODE":"DE","NUTS_NAME":"Donau-Ries","NAME_LATN":"Donau-Ries","FID":"DE27D"},"id":"DE27D"},{"type":"Point","coordinates":[10.2843,47.5654],"properties":{"NUTS_ID":"DE27E","LEVL_CODE":3,"CNTR_CODE":"DE","NUTS_NAME":"Oberallgäu","NAME_LATN":"Oberallgäu","FID":"DE27E"},"id":"DE27E"},{"type":"Point","coordinates":[13.4018,52.5015],"properties":{"NUTS_ID":"DE300","LEVL_CODE":3,"CNTR_CODE":"DE","NUTS_NAME":"Berlin","NAME_LATN":"Berlin","FID":"DE300"},"id":"DE300"},{"type":"Point","coordinates":[12.5307,52.3991],"properties":{"NUTS_ID":"DE401","LEVL_CODE":3,"CNTR_CODE":"DE","NUTS_NAME":"Brandenburg an der Havel, Kreisfreie Stadt","NAME_LATN":"Brandenburg an der Havel, Kreisfreie Stadt","FID":"DE401"},"id":"DE401"},{"type":"Point","coordinates":[14.385,51.7642],"properties":{"NUTS_ID":"DE402","LEVL_CODE":3,"CNTR_CODE":"DE","NUTS_NAME":"Cottbus, Kreisfreie Stadt","NAME_LATN":"Cottbus, Kreisfreie Stadt","FID":"DE402"},"id":"DE402"},{"type":"Point","coordinates":[14.5026,52.3227],"properties":{"NUTS_ID":"DE403","LEVL_CODE":3,"CNTR_CODE":"DE","NUTS_NAME":"Frankfurt (Oder), Kreisfreie Stadt","NAME_LATN":"Frankfurt (Oder), Kreisfreie Stadt","FID":"DE403"},"id":"DE403"},{"type":"Point","coordinates":[13.0258,52.4145],"properties":{"NUTS_ID":"DE404","LEVL_CODE":3,"CNTR_CODE":"DE","NUTS_NAME":"Potsdam, Kreisfreie Stadt","NAME_LATN":"Potsdam, Kreisfreie Stadt","FID":"DE404"},"id":"DE404"},{"type":"Point","coordinates":[13.6575,52.8006],"properties":{"NUTS_ID":"DE405","LEVL_CODE":3,"CNTR_CODE":"DE","NUTS_NAME":"Barnim","NAME_LATN":"Barnim","FID":"DE405"},"id":"DE405"},{"type":"Point","coordinates":[13.9206,52.0117],"properties":{"NUTS_ID":"DE406","LEVL_CODE":3,"CNTR_CODE":"DE","NUTS_NAME":"Dahme-Spreewald","NAME_LATN":"Dahme-Spreewald","FID":"DE406"},"id":"DE406"},{"type":"Point","coordinates":[13.4686,51.6074],"properties":{"NUTS_ID":"DE407","LEVL_CODE":3,"CNTR_CODE":"DE","NUTS_NAME":"Elbe-Elster","NAME_LATN":"Elbe-Elster","FID":"DE407"},"id":"DE407"},{"type":"Point","coordinates":[12.6628,52.6587],"properties":{"NUTS_ID":"DE408","LEVL_CODE":3,"CNTR_CODE":"DE","NUTS_NAME":"Havelland","NAME_LATN":"Havelland","FID":"DE408"},"id":"DE408"},{"type":"Point","coordinates":[14.1344,52.6419],"properties":{"NUTS_ID":"DE409","LEVL_CODE":3,"CNTR_CODE":"DE","NUTS_NAME":"Märkisch-Oderland","NAME_LATN":"Märkisch-Oderland","FID":"DE409"},"id":"DE409"},{"type":"Point","coordinates":[13.182,52.9109],"properties":{"NUTS_ID":"DE40A","LEVL_CODE":3,"CNTR_CODE":"DE","NUTS_NAME":"Oberhavel","NAME_LATN":"Oberhavel","FID":"DE40A"},"id":"DE40A"},{"type":"Point","coordinates":[14.0182,51.6329],"properties":{"NUTS_ID":"DE40B","LEVL_CODE":3,"CNTR_CODE":"DE","NUTS_NAME":"Oberspreewald-Lausitz","NAME_LATN":"Oberspreewald-Lausitz","FID":"DE40B"},"id":"DE40B"},{"type":"Point","coordinates":[14.2157,52.2734],"properties":{"NUTS_ID":"DE40C","LEVL_CODE":3,"CNTR_CODE":"DE","NUTS_NAME":"Oder-Spree","NAME_LATN":"Oder-Spree","FID":"DE40C"},"id":"DE40C"},{"type":"Point","coordinates":[12.5943,53.0268],"properties":{"NUTS_ID":"DE40D","LEVL_CODE":3,"CNTR_CODE":"DE","NUTS_NAME":"Ostprignitz-Ruppin","NAME_LATN":"Ostprignitz-Ruppin","FID":"DE40D"},"id":"DE40D"},{"type":"Point","coordinates":[12.7593,52.2264],"properties":{"NUTS_ID":"DE40E","LEVL_CODE":3,"CNTR_CODE":"DE","NUTS_NAME":"Potsdam-Mittelmark","NAME_LATN":"Potsdam-Mittelmark","FID":"DE40E"},"id":"DE40E"},{"type":"Point","coordinates":[12.0349,53.1245],"properties":{"NUTS_ID":"DE40F","LEVL_CODE":3,"CNTR_CODE":"DE","NUTS_NAME":"Prignitz","NAME_LATN":"Prignitz","FID":"DE40F"},"id":"DE40F"},{"type":"Point","coordinates":[14.4106,51.6224],"properties":{"NUTS_ID":"DE40G","LEVL_CODE":3,"CNTR_CODE":"DE","NUTS_NAME":"Spree-Neiße","NAME_LATN":"Spree-Neiße","FID":"DE40G"},"id":"DE40G"},{"type":"Point","coordinates":[13.2173,52.1025],"properties":{"NUTS_ID":"DE40H","LEVL_CODE":3,"CNTR_CODE":"DE","NUTS_NAME":"Teltow-Fläming","NAME_LATN":"Teltow-Fläming","FID":"DE40H"},"id":"DE40H"},{"type":"Point","coordinates":[13.8477,53.2828],"properties":{"NUTS_ID":"DE40I","LEVL_CODE":3,"CNTR_CODE":"DE","NUTS_NAME":"Uckermark","NAME_LATN":"Uckermark","FID":"DE40I"},"id":"DE40I"},{"type":"Point","coordinates":[8.7383,53.1064],"properties":{"NUTS_ID":"DE501","LEVL_CODE":3,"CNTR_CODE":"DE","NUTS_NAME":"Bremen, Kreisfreie Stadt","NAME_LATN":"Bremen, Kreisfreie Stadt","FID":"DE501"},"id":"DE501"},{"type":"Point","coordinates":[8.6011,53.5382],"properties":{"NUTS_ID":"DE502","LEVL_CODE":3,"CNTR_CODE":"DE","NUTS_NAME":"Bremerhaven, Kreisfreie Stadt","NAME_LATN":"Bremerhaven, Kreisfreie Stadt","FID":"DE502"},"id":"DE502"},{"type":"Point","coordinates":[10.0118,53.5477],"properties":{"NUTS_ID":"DE600","LEVL_CODE":3,"CNTR_CODE":"DE","NUTS_NAME":"Hamburg","NAME_LATN":"Hamburg","FID":"DE600"},"id":"DE600"},{"type":"Point","coordinates":[8.6557,49.8719],"properties":{"NUTS_ID":"DE711","LEVL_CODE":3,"CNTR_CODE":"DE","NUTS_NAME":"Darmstadt, Kreisfreie Stadt","NAME_LATN":"Darmstadt, Kreisfreie Stadt","FID":"DE711"},"id":"DE711"},{"type":"Point","coordinates":[8.6366,50.1253],"properties":{"NUTS_ID":"DE712","LEVL_CODE":3,"CNTR_CODE":"DE","NUTS_NAME":"Frankfurt am Main, Kreisfreie Stadt","NAME_LATN":"Frankfurt am Main, Kreisfreie Stadt","FID":"DE712"},"id":"DE712"},{"type":"Point","coordinates":[8.7803,50.0845],"properties":{"NUTS_ID":"DE713","LEVL_CODE":3,"CNTR_CODE":"DE","NUTS_NAME":"Offenbach am Main, Kreisfreie Stadt","NAME_LATN":"Offenbach am Main, Kreisfreie Stadt","FID":"DE713"},"id":"DE713"},{"type":"Point","coordinates":[8.2479,50.0862],"properties":{"NUTS_ID":"DE714","LEVL_CODE":3,"CNTR_CODE":"DE","NUTS_NAME":"Wiesbaden, Kreisfreie Stadt","NAME_LATN":"Wiesbaden, Kreisfreie Stadt","FID":"DE714"},"id":"DE714"},{"type":"Point","coordinates":[8.6319,49.6725],"properties":{"NUTS_ID":"DE715","LEVL_CODE":3,"CNTR_CODE":"DE","NUTS_NAME":"Bergstraße","NAME_LATN":"Bergstraße","FID":"DE715"},"id":"DE715"},{"type":"Point","coordinates":[8.7854,49.8451],"properties":{"NUTS_ID":"DE716","LEVL_CODE":3,"CNTR_CODE":"DE","NUTS_NAME":"Darmstadt-Dieburg","NAME_LATN":"Darmstadt-Dieburg","FID":"DE716"},"id":"DE716"},{"type":"Point","coordinates":[8.4702,49.9045],"properties":{"NUTS_ID":"DE717","LEVL_CODE":3,"CNTR_CODE":"DE","NUTS_NAME":"Groß-Gerau","NAME_LATN":"Groß-Gerau","FID":"DE717"},"id":"DE717"},{"type":"Point","coordinates":[8.5141,50.2837],"properties":{"NUTS_ID":"DE718","LEVL_CODE":3,"CNTR_CODE":"DE","NUTS_NAME":"Hochtaunuskreis","NAME_LATN":"Hochtaunuskreis","FID":"DE718"},"id":"DE718"},{"type":"Point","coordinates":[9.2633,50.2356],"properties":{"NUTS_ID":"DE719","LEVL_CODE":3,"CNTR_CODE":"DE","NUTS_NAME":"Main-Kinzig-Kreis","NAME_LATN":"Main-Kinzig-Kreis","FID":"DE719"},"id":"DE719"},{"type":"Point","coordinates":[8.4597,50.0965],"properties":{"NUTS_ID":"DE71A","LEVL_CODE":3,"CNTR_CODE":"DE","NUTS_NAME":"Main-Taunus-Kreis","NAME_LATN":"Main-Taunus-Kreis","FID":"DE71A"},"id":"DE71A"},{"type":"Point","coordinates":[8.969,49.6494],"properties":{"NUTS_ID":"DE71B","LEVL_CODE":3,"CNTR_CODE":"DE","NUTS_NAME":"Odenwaldkreis","NAME_LATN":"Odenwaldkreis","FID":"DE71B"},"id":"DE71B"},{"type":"Point","coordinates":[8.8199,50.0099],"properties":{"NUTS_ID":"DE71C","LEVL_CODE":3,"CNTR_CODE":"DE","NUTS_NAME":"Offenbach, Landkreis","NAME_LATN":"Offenbach, Landkreis","FID":"DE71C"},"id":"DE71C"},{"type":"Point","coordinates":[8.0919,50.1378],"properties":{"NUTS_ID":"DE71D","LEVL_CODE":3,"CNTR_CODE":"DE","NUTS_NAME":"Rheingau-Taunus-Kreis","NAME_LATN":"Rheingau-Taunus-Kreis","FID":"DE71D"},"id":"DE71D"},{"type":"Point","coordinates":[8.9033,50.3533],"properties":{"NUTS_ID":"DE71E","LEVL_CODE":3,"CNTR_CODE":"DE","NUTS_NAME":"Wetteraukreis","NAME_LATN":"Wetteraukreis","FID":"DE71E"},"id":"DE71E"},{"type":"Point","coordinates":[8.8275,50.5691],"properties":{"NUTS_ID":"DE721","LEVL_CODE":3,"CNTR_CODE":"DE","NUTS_NAME":"Gießen, Landkreis","NAME_LATN":"Gießen, Landkreis","FID":"DE721"},"id":"DE721"},{"type":"Point","coordinates":[8.3782,50.6616],"properties":{"NUTS_ID":"DE722","LEVL_CODE":3,"CNTR_CODE":"DE","NUTS_NAME":"Lahn-Dill-Kreis","NAME_LATN":"Lahn-Dill-Kreis","FID":"DE722"},"id":"DE722"},{"type":"Point","coordinates":[8.2151,50.4305],"properties":{"NUTS_ID":"DE723","LEVL_CODE":3,"CNTR_CODE":"DE","NUTS_NAME":"Limburg-Weilburg","NAME_LATN":"Limburg-Weilburg","FID":"DE723"},"id":"DE723"},{"type":"Point","coordinates":[8.7537,50.8327],"properties":{"NUTS_ID":"DE724","LEVL_CODE":3,"CNTR_CODE":"DE","NUTS_NAME":"Marburg-Biedenkopf","NAME_LATN":"Marburg-Biedenkopf","FID":"DE724"},"id":"DE724"},{"type":"Point","coordinates":[9.2789,50.6213],"properties":{"NUTS_ID":"DE725","LEVL_CODE":3,"CNTR_CODE":"DE","NUTS_NAME":"Vogelsbergkreis","NAME_LATN":"Vogelsbergkreis","FID":"DE725"},"id":"DE725"},{"type":"Point","coordinates":[9.4609,51.3042],"properties":{"NUTS_ID":"DE731","LEVL_CODE":3,"CNTR_CODE":"DE","NUTS_NAME":"Kassel, Kreisfreie Stadt","NAME_LATN":"Kassel, Kreisfreie Stadt","FID":"DE731"},"id":"DE731"},{"type":"Point","coordinates":[9.7592,50.5639],"properties":{"NUTS_ID":"DE732","LEVL_CODE":3,"CNTR_CODE":"DE","NUTS_NAME":"Fulda","NAME_LATN":"Fulda","FID":"DE732"},"id":"DE732"},{"type":"Point","coordinates":[9.7478,50.9334],"properties":{"NUTS_ID":"DE733","LEVL_CODE":3,"CNTR_CODE":"DE","NUTS_NAME":"Hersfeld-Rotenburg","NAME_LATN":"Hersfeld-Rotenburg","FID":"DE733"},"id":"DE733"},{"type":"Point","coordinates":[9.3914,51.4359],"properties":{"NUTS_ID":"DE734","LEVL_CODE":3,"CNTR_CODE":"DE","NUTS_NAME":"Kassel, Landkreis","NAME_LATN":"Kassel, Landkreis","FID":"DE734"},"id":"DE734"},{"type":"Point","coordinates":[9.3764,51.0052],"properties":{"NUTS_ID":"DE735","LEVL_CODE":3,"CNTR_CODE":"DE","NUTS_NAME":"Schwalm-Eder-Kreis","NAME_LATN":"Schwalm-Eder-Kreis","FID":"DE735"},"id":"DE735"},{"type":"Point","coordinates":[8.8437,51.1736],"properties":{"NUTS_ID":"DE736","LEVL_CODE":3,"CNTR_CODE":"DE","NUTS_NAME":"Waldeck-Frankenberg","NAME_LATN":"Waldeck-Frankenberg","FID":"DE736"},"id":"DE736"},{"type":"Point","coordinates":[9.9305,51.196],"properties":{"NUTS_ID":"DE737","LEVL_CODE":3,"CNTR_CODE":"DE","NUTS_NAME":"Werra-Meißner-Kreis","NAME_LATN":"Werra-Meißner-Kreis","FID":"DE737"},"id":"DE737"},{"type":"Point","coordinates":[13.4145,54.0954],"properties":{"NUTS_ID":"DE801","LEVL_CODE":3,"CNTR_CODE":"DE","NUTS_NAME":"Greifswald, Kreisfreie Stadt","NAME_LATN":"Greifswald, Kreisfreie Stadt","FID":"DE801"},"id":"DE801"},{"type":"Point","coordinates":[13.2448,53.5579],"properties":{"NUTS_ID":"DE802","LEVL_CODE":3,"CNTR_CODE":"DE","NUTS_NAME":"Neubrandenburg, Kreisfreie Stadt","NAME_LATN":"Neubrandenburg, Kreisfreie Stadt","FID":"DE802"},"id":"DE802"},{"type":"Point","coordinates":[12.1404,54.0761],"properties":{"NUTS_ID":"DE803","LEVL_CODE":3,"CNTR_CODE":"DE","NUTS_NAME":"Rostock, Kreisfreie Stadt","NAME_LATN":"Rostock, Kreisfreie Stadt","FID":"DE803"},"id":"DE803"},{"type":"Point","coordinates":[11.3999,53.6118],"properties":{"NUTS_ID":"DE804","LEVL_CODE":3,"CNTR_CODE":"DE","NUTS_NAME":"Schwerin, Kreisfreie Stadt","NAME_LATN":"Schwerin, Kreisfreie Stadt","FID":"DE804"},"id":"DE804"},{"type":"Point","coordinates":[13.0874,54.2918],"properties":{"NUTS_ID":"DE805","LEVL_CODE":3,"CNTR_CODE":"DE","NUTS_NAME":"Stralsund, Kreisfreie Stadt","NAME_LATN":"Stralsund, Kreisfreie Stadt","FID":"DE805"},"id":"DE805"},{"type":"Point","coordinates":[11.4615,53.8851],"properties":{"NUTS_ID":"DE806","LEVL_CODE":3,"CNTR_CODE":"DE","NUTS_NAME":"Wismar, Kreisfreie Stadt","NAME_LATN":"Wismar, Kreisfreie Stadt","FID":"DE806"},"id":"DE806"},{"type":"Point","coordinates":[12.0874,53.9582],"properties":{"NUTS_ID":"DE807","LEVL_CODE":3,"CNTR_CODE":"DE","NUTS_NAME":"Bad Doberan","NAME_LATN":"Bad Doberan","FID":"DE807"},"id":"DE807"},{"type":"Point","coordinates":[13.0327,53.7963],"properties":{"NUTS_ID":"DE808","LEVL_CODE":3,"CNTR_CODE":"DE","NUTS_NAME":"Demmin","NAME_LATN":"Demmin","FID":"DE808"},"id":"DE808"},{"type":"Point","coordinates":[12.2785,53.7682],"properties":{"NUTS_ID":"DE809","LEVL_CODE":3,"CNTR_CODE":"DE","NUTS_NAME":"Güstrow","NAME_LATN":"Güstrow","FID":"DE809"},"id":"DE809"},{"type":"Point","coordinates":[11.2258,53.3738],"properties":{"NUTS_ID":"DE80A","LEVL_CODE":3,"CNTR_CODE":"DE","NUTS_NAME":"Ludwigslust","NAME_LATN":"Ludwigslust","FID":"DE80A"},"id":"DE80A"},{"type":"Point","coordinates":[13.2656,53.3903],"properties":{"NUTS_ID":"DE80B","LEVL_CODE":3,"CNTR_CODE":"DE","NUTS_NAME":"Mecklenburg-Strelitz","NAME_LATN":"Mecklenburg-Strelitz","FID":"DE80B"},"id":"DE80B"},{"type":"Point","coordinates":[12.7285,53.4195],"properties":{"NUTS_ID":"DE80C","LEVL_CODE":3,"CNTR_CODE":"DE","NUTS_NAME":"Müritz","NAME_LATN":"Müritz","FID":"DE80C"},"id":"DE80C"},{"type":"Point","coordinates":[12.796,54.1818],"properties":{"NUTS_ID":"DE80D","LEVL_CODE":3,"CNTR_CODE":"DE","NUTS_NAME":"Nordvorpommern","NAME_LATN":"Nordvorpommern","FID":"DE80D"},"id":"DE80D"},{"type":"Point","coordinates":[11.2775,53.7635],"properties":{"NUTS_ID":"DE80E","LEVL_CODE":3,"CNTR_CODE":"DE","NUTS_NAME":"Nordwestmecklenburg","NAME_LATN":"Nordwestmecklenburg","FID":"DE80E"},"id":"DE80E"},{"type":"Point","coordinates":[13.5782,53.9153],"properties":{"NUTS_ID":"DE80F","LEVL_CODE":3,"CNTR_CODE":"DE","NUTS_NAME":"Ostvorpommern","NAME_LATN":"Ostvorpommern","FID":"DE80F"},"id":"DE80F"},{"type":"Point","coordinates":[11.9042,53.5093],"properties":{"NUTS_ID":"DE80G","LEVL_CODE":3,"CNTR_CODE":"DE","NUTS_NAME":"Parchim","NAME_LATN":"Parchim","FID":"DE80G"},"id":"DE80G"},{"type":"Point","coordinates":[13.4452,54.3913],"properties":{"NUTS_ID":"DE80H","LEVL_CODE":3,"CNTR_CODE":"DE","NUTS_NAME":"Rügen","NAME_LATN":"Rügen","FID":"DE80H"},"id":"DE80H"},{"type":"Point","coordinates":[14.0572,53.5892],"properties":{"NUTS_ID":"DE80I","LEVL_CODE":3,"CNTR_CODE":"DE","NUTS_NAME":"Uecker-Randow","NAME_LATN":"Uecker-Randow","FID":"DE80I"},"id":"DE80I"},{"type":"Point","coordinates":[10.5282,52.2596],"properties":{"NUTS_ID":"DE911","LEVL_CODE":3,"CNTR_CODE":"DE","NUTS_NAME":"Braunschweig, Kreisfreie Stadt","NAME_LATN":"Braunschweig, Kreisfreie Stadt","FID":"DE911"},"id":"DE911"},{"type":"Point","coordinates":[10.3686,52.1077],"properties":{"NUTS_ID":"DE912","LEVL_CODE":3,"CNTR_CODE":"DE","NUTS_NAME":"Salzgitter, Kreisfreie Stadt","NAME_LATN":"Salzgitter, Kreisfreie Stadt","FID":"DE912"},"id":"DE912"},{"type":"Point","coordinates":[10.7765,52.4151],"properties":{"NUTS_ID":"DE913","LEVL_CODE":3,"CNTR_CODE":"DE","NUTS_NAME":"Wolfsburg, Kreisfreie Stadt","NAME_LATN":"Wolfsburg, Kreisfreie Stadt","FID":"DE913"},"id":"DE913"},{"type":"Point","coordinates":[10.6353,52.5783],"properties":{"NUTS_ID":"DE914","LEVL_CODE":3,"CNTR_CODE":"DE","NUTS_NAME":"Gifhorn","NAME_LATN":"Gifhorn","FID":"DE914"},"id":"DE914"},{"type":"Point","coordinates":[9.9594,51.505],"properties":{"NUTS_ID":"DE915","LEVL_CODE":3,"CNTR_CODE":"DE","NUTS_NAME":"Göttingen","NAME_LATN":"Göttingen","FID":"DE915"},"id":"DE915"},{"type":"Point","coordinates":[10.3854,51.9085],"properties":{"NUTS_ID":"DE916","LEVL_CODE":3,"CNTR_CODE":"DE","NUTS_NAME":"Goslar","NAME_LATN":"Goslar","FID":"DE916"},"id":"DE916"},{"type":"Point","coordinates":[10.9069,52.2429],"properties":{"NUTS_ID":"DE917","LEVL_CODE":3,"CNTR_CODE":"DE","NUTS_NAME":"Helmstedt","NAME_LATN":"Helmstedt","FID":"DE917"},"id":"DE917"},{"type":"Point","coordinates":[9.7891,51.7365],"properties":{"NUTS_ID":"DE918","LEVL_CODE":3,"CNTR_CODE":"DE","NUTS_NAME":"Northeim","NAME_LATN":"Northeim","FID":"DE918"},"id":"DE918"},{"type":"Point","coordinates":[10.3984,51.6854],"properties":{"NUTS_ID":"DE919","LEVL_CODE":3,"CNTR_CODE":"DE","NUTS_NAME":"Osterode am Harz","NAME_LATN":"Osterode am Harz","FID":"DE919"},"id":"DE919"},{"type":"Point","coordinates":[10.2249,52.3226],"properties":{"NUTS_ID":"DE91A","LEVL_CODE":3,"CNTR_CODE":"DE","NUTS_NAME":"Peine","NAME_LATN":"Peine","FID":"DE91A"},"id":"DE91A"},{"type":"Point","coordinates":[10.6595,52.1707],"properties":{"NUTS_ID":"DE91B","LEVL_CODE":3,"CNTR_CODE":"DE","NUTS_NAME":"Wolfenbüttel","NAME_LATN":"Wolfenbüttel","FID":"DE91B"},"id":"DE91B"},{"type":"Point","coordinates":[8.7017,52.7709],"properties":{"NUTS_ID":"DE922","LEVL_CODE":3,"CNTR_CODE":"DE","NUTS_NAME":"Diepholz","NAME_LATN":"Diepholz","FID":"DE922"},"id":"DE922"},{"type":"Point","coordinates":[9.4196,52.1171],"properties":{"NUTS_ID":"DE923","LEVL_CODE":3,"CNTR_CODE":"DE","NUTS_NAME":"Hameln-Pyrmont","NAME_LATN":"Hameln-Pyrmont","FID":"DE923"},"id":"DE923"},{"type":"Point","coordinates":[9.9465,52.0969],"properties":{"NUTS_ID":"DE925","LEVL_CODE":3,"CNTR_CODE":"DE","NUTS_NAME":"Hildesheim","NAME_LATN":"Hildesheim","FID":"DE925"},"id":"DE925"},{"type":"Point","coordinates":[9.6015,51.9036],"properties":{"NUTS_ID":"DE926","LEVL_CODE":3,"CNTR_CODE":"DE","NUTS_NAME":"Holzminden","NAME_LATN":"Holzminden","FID":"DE926"},"id":"DE926"},{"type":"Point","coordinates":[9.1396,52.6064],"properties":{"NUTS_ID":"DE927","LEVL_CODE":3,"CNTR_CODE":"DE","NUTS_NAME":"Nienburg (Weser)","NAME_LATN":"Nienburg (Weser)","FID":"DE927"},"id":"DE927"},{"type":"Point","coordinates":[9.205,52.3044],"properties":{"NUTS_ID":"DE928","LEVL_CODE":3,"CNTR_CODE":"DE","NUTS_NAME":"Schaumburg","NAME_LATN":"Schaumburg","FID":"DE928"},"id":"DE928"},{"type":"Point","coordinates":[9.6744,52.4175],"properties":{"NUTS_ID":"DE929","LEVL_CODE":3,"CNTR_CODE":"DE","NUTS_NAME":"Region Hannover","NAME_LATN":"Region Hannover","FID":"DE929"},"id":"DE929"},{"type":"Point","coordinates":[10.0846,52.7147],"properties":{"NUTS_ID":"DE931","LEVL_CODE":3,"CNTR_CODE":"DE","NUTS_NAME":"Celle","NAME_LATN":"Celle","FID":"DE931"},"id":"DE931"},{"type":"Point","coordinates":[8.892,53.6069],"properties":{"NUTS_ID":"DE932","LEVL_CODE":3,"CNTR_CODE":"DE","NUTS_NAME":"Cuxhaven","NAME_LATN":"Cuxhaven","FID":"DE932"},"id":"DE932"},{"type":"Point","coordinates":[10.0162,53.294],"properties":{"NUTS_ID":"DE933","LEVL_CODE":3,"CNTR_CODE":"DE","NUTS_NAME":"Harburg","NAME_LATN":"Harburg","FID":"DE933"},"id":"DE933"},{"type":"Point","coordinates":[11.1733,53.0279],"properties":{"NUTS_ID":"DE934","LEVL_CODE":3,"CNTR_CODE":"DE","NUTS_NAME":"Lüchow-Dannenberg","NAME_LATN":"Lüchow-Dannenberg","FID":"DE934"},"id":"DE934"},{"type":"Point","coordinates":[10.6172,53.2802],"properties":{"NUTS_ID":"DE935","LEVL_CODE":3,"CNTR_CODE":"DE","NUTS_NAME":"Lüneburg, Landkreis","NAME_LATN":"Lüneburg, Landkreis","FID":"DE935"},"id":"DE935"},{"type":"Point","coordinates":[8.7746,53.2669],"properties":{"NUTS_ID":"DE936","LEVL_CODE":3,"CNTR_CODE":"DE","NUTS_NAME":"Osterholz","NAME_LATN":"Osterholz","FID":"DE936"},"id":"DE936"},{"type":"Point","coordinates":[9.3067,53.2507],"properties":{"NUTS_ID":"DE937","LEVL_CODE":3,"CNTR_CODE":"DE","NUTS_NAME":"Rotenburg (Wümme)","NAME_LATN":"Rotenburg (Wümme)","FID":"DE937"},"id":"DE937"},{"type":"Point","coordinates":[9.7756,52.9656],"properties":{"NUTS_ID":"DE938","LEVL_CODE":3,"CNTR_CODE":"DE","NUTS_NAME":"Soltau-Fallingbostel","NAME_LATN":"Soltau-Fallingbostel","FID":"DE938"},"id":"DE938"},{"type":"Point","coordinates":[9.3923,53.5734],"properties":{"NUTS_ID":"DE939","LEVL_CODE":3,"CNTR_CODE":"DE","NUTS_NAME":"Stade","NAME_LATN":"Stade","FID":"DE939"},"id":"DE939"},{"type":"Point","coordinates":[10.5243,53.0119],"properties":{"NUTS_ID":"DE93A","LEVL_CODE":3,"CNTR_CODE":"DE","NUTS_NAME":"Uelzen","NAME_LATN":"Uelzen","FID":"DE93A"},"id":"DE93A"},{"type":"Point","coordinates":[9.1755,52.9732],"properties":{"NUTS_ID":"DE93B","LEVL_CODE":3,"CNTR_CODE":"DE","NUTS_NAME":"Verden","NAME_LATN":"Verden","FID":"DE93B"},"id":"DE93B"},{"type":"Point","coordinates":[8.6438,53.0562],"properties":{"NUTS_ID":"DE941","LEVL_CODE":3,"CNTR_CODE":"DE","NUTS_NAME":"Delmenhorst, Kreisfreie Stadt","NAME_LATN":"Delmenhorst, Kreisfreie Stadt","FID":"DE941"},"id":"DE941"},{"type":"Point","coordinates":[7.1556,53.3631],"properties":{"NUTS_ID":"DE942","LEVL_CODE":3,"CNTR_CODE":"DE","NUTS_NAME":"Emden, Kreisfreie Stadt","NAME_LATN":"Emden, Kreisfreie Stadt","FID":"DE942"},"id":"DE942"},{"type":"Point","coordinates":[8.2196,53.1424],"properties":{"NUTS_ID":"DE943","LEVL_CODE":3,"CNTR_CODE":"DE","NUTS_NAME":"Oldenburg (Oldenburg), Kreisfreie Stadt","NAME_LATN":"Oldenburg (Oldenburg), Kreisfreie Stadt","FID":"DE943"},"id":"DE943"},{"type":"Point","coordinates":[8.0558,52.2762],"properties":{"NUTS_ID":"DE944","LEVL_CODE":3,"CNTR_CODE":"DE","NUTS_NAME":"Osnabrück, Kreisfreie Stadt","NAME_LATN":"Osnabrück, Kreisfreie Stadt","FID":"DE944"},"id":"DE944"},{"type":"Point","coordinates":[8.0819,53.5673],"properties":{"NUTS_ID":"DE945","LEVL_CODE":3,"CNTR_CODE":"DE","NUTS_NAME":"Wilhelmshaven, Kreisfreie Stadt","NAME_LATN":"Wilhelmshaven, Kreisfreie Stadt","FID":"DE945"},"id":"DE945"},{"type":"Point","coordinates":[8.0069,53.1907],"properties":{"NUTS_ID":"DE946","LEVL_CODE":3,"CNTR_CODE":"DE","NUTS_NAME":"Ammerland","NAME_LATN":"Ammerland","FID":"DE946"},"id":"DE946"},{"type":"Point","coordinates":[7.3976,53.5167],"properties":{"NUTS_ID":"DE947","LEVL_CODE":3,"CNTR_CODE":"DE","NUTS_NAME":"Aurich","NAME_LATN":"Aurich","FID":"DE947"},"id":"DE947"},{"type":"Point","coordinates":[7.9393,52.8979],"properties":{"NUTS_ID":"DE948","LEVL_CODE":3,"CNTR_CODE":"DE","NUTS_NAME":"Cloppenburg","NAME_LATN":"Cloppenburg","FID":"DE948"},"id":"DE948"},{"type":"Point","coordinates":[7.415,52.7186],"properties":{"NUTS_ID":"DE949","LEVL_CODE":3,"CNTR_CODE":"DE","NUTS_NAME":"Emsland","NAME_LATN":"Emsland","FID":"DE949"},"id":"DE949"},{"type":"Point","coordinates":[8.0118,53.4552],"properties":{"NUTS_ID":"DE94A","LEVL_CODE":3,"CNTR_CODE":"DE","NUTS_NAME":"Friesland (D)","NAME_LATN":"Friesland (D)","FID":"DE94A"},"id":"DE94A"},{"type":"Point","coordinates":[6.9912,52.5509],"properties":{"NUTS_ID":"DE94B","LEVL_CODE":3,"CNTR_CODE":"DE","NUTS_NAME":"Grafschaft Bentheim","NAME_LATN":"Grafschaft Bentheim","FID":"DE94B"},"id":"DE94B"},{"type":"Point","coordinates":[7.5344,53.1936],"properties":{"NUTS_ID":"DE94C","LEVL_CODE":3,"CNTR_CODE":"DE","NUTS_NAME":"Leer","NAME_LATN":"Leer","FID":"DE94C"},"id":"DE94C"},{"type":"Point","coordinates":[8.3722,53.01],"properties":{"NUTS_ID":"DE94D","LEVL_CODE":3,"CNTR_CODE":"DE","NUTS_NAME":"Oldenburg, Landkreis","NAME_LATN":"Oldenburg, Landkreis","FID":"DE94D"},"id":"DE94D"},{"type":"Point","coordinates":[8.1507,52.3641],"properties":{"NUTS_ID":"DE94E","LEVL_CODE":3,"CNTR_CODE":"DE","NUTS_NAME":"Osnabrück, Landkreis","NAME_LATN":"Osnabrück, Landkreis","FID":"DE94E"},"id":"DE94E"},{"type":"Point","coordinates":[8.2231,52.6603],"properties":{"NUTS_ID":"DE94F","LEVL_CODE":3,"CNTR_CODE":"DE","NUTS_NAME":"Vechta","NAME_LATN":"Vechta","FID":"DE94F"},"id":"DE94F"},{"type":"Point","coordinates":[8.4073,53.3466],"properties":{"NUTS_ID":"DE94G","LEVL_CODE":3,"CNTR_CODE":"DE","NUTS_NAME":"Wesermarsch","NAME_LATN":"Wesermarsch","FID":"DE94G"},"id":"DE94G"},{"type":"Point","coordinates":[7.6887,53.5827],"properties":{"NUTS_ID":"DE94H","LEVL_CODE":3,"CNTR_CODE":"DE","NUTS_NAME":"Wittmund","NAME_LATN":"Wittmund","FID":"DE94H"},"id":"DE94H"},{"type":"Point","coordinates":[6.8175,51.2138],"properties":{"NUTS_ID":"DEA11","LEVL_CODE":3,"CNTR_CODE":"DE","NUTS_NAME":"Düsseldorf, Kreisfreie Stadt","NAME_LATN":"Düsseldorf, Kreisfreie Stadt","FID":"DEA11"},"id":"DEA11"},{"type":"Point","coordinates":[6.7247,51.4471],"properties":{"NUTS_ID":"DEA12","LEVL_CODE":3,"CNTR_CODE":"DE","NUTS_NAME":"Duisburg, Kreisfreie Stadt","NAME_LATN":"Duisburg, Kreisfreie Stadt","FID":"DEA12"},"id":"DEA12"},{"type":"Point","coordinates":[7.0159,51.4487],"properties":{"NUTS_ID":"DEA13","LEVL_CODE":3,"CNTR_CODE":"DE","NUTS_NAME":"Essen, Kreisfreie Stadt","NAME_LATN":"Essen, Kreisfreie Stadt","FID":"DEA13"},"id":"DEA13"},{"type":"Point","coordinates":[6.5934,51.3398],"properties":{"NUTS_ID":"DEA14","LEVL_CODE":3,"CNTR_CODE":"DE","NUTS_NAME":"Krefeld, Kreisfreie Stadt","NAME_LATN":"Krefeld, Kreisfreie Stadt","FID":"DEA14"},"id":"DEA14"},{"type":"Point","coordinates":[6.4152,51.1526],"properties":{"NUTS_ID":"DEA15","LEVL_CODE":3,"CNTR_CODE":"DE","NUTS_NAME":"Mönchengladbach, Kreisfreie Stadt","NAME_LATN":"Mönchengladbach, Kreisfreie Stadt","FID":"DEA15"},"id":"DEA15"},{"type":"Point","coordinates":[6.884,51.415],"properties":{"NUTS_ID":"DEA16","LEVL_CODE":3,"CNTR_CODE":"DE","NUTS_NAME":"Mülheim an der Ruhr,Kreisfreie Stadt","NAME_LATN":"Mülheim an der Ruhr,Kreisfreie Stadt","FID":"DEA16"},"id":"DEA16"},{"type":"Point","coordinates":[6.8536,51.5152],"properties":{"NUTS_ID":"DEA17","LEVL_CODE":3,"CNTR_CODE":"DE","NUTS_NAME":"Oberhausen, Kreisfreie Stadt","NAME_LATN":"Oberhausen, Kreisfreie Stadt","FID":"DEA17"},"id":"DEA17"},{"type":"Point","coordinates":[7.2193,51.1903],"properties":{"NUTS_ID":"DEA18","LEVL_CODE":3,"CNTR_CODE":"DE","NUTS_NAME":"Remscheid, Kreisfreie Stadt","NAME_LATN":"Remscheid, Kreisfreie Stadt","FID":"DEA18"},"id":"DEA18"},{"type":"Point","coordinates":[7.0604,51.1688],"properties":{"NUTS_ID":"DEA19","LEVL_CODE":3,"CNTR_CODE":"DE","NUTS_NAME":"Solingen, Kreisfreie Stadt","NAME_LATN":"Solingen, Kreisfreie Stadt","FID":"DEA19"},"id":"DEA19"},{"type":"Point","coordinates":[7.163,51.2608],"properties":{"NUTS_ID":"DEA1A","LEVL_CODE":3,"CNTR_CODE":"DE","NUTS_NAME":"Wuppertal, Kreisfreie Stadt","NAME_LATN":"Wuppertal, Kreisfreie Stadt","FID":"DEA1A"},"id":"DEA1A"},{"type":"Point","coordinates":[6.2549,51.6134],"properties":{"NUTS_ID":"DEA1B","LEVL_CODE":3,"CNTR_CODE":"DE","NUTS_NAME":"Kleve","NAME_LATN":"Kleve","FID":"DEA1B"},"id":"DEA1B"},{"type":"Point","coordinates":[6.9692,51.2571],"properties":{"NUTS_ID":"DEA1C","LEVL_CODE":3,"CNTR_CODE":"DE","NUTS_NAME":"Mettmann","NAME_LATN":"Mettmann","FID":"DEA1C"},"id":"DEA1C"},{"type":"Point","coordinates":[6.6557,51.1641],"properties":{"NUTS_ID":"DEA1D","LEVL_CODE":3,"CNTR_CODE":"DE","NUTS_NAME":"Rhein-Kreis Neuss","NAME_LATN":"Rhein-Kreis Neuss","FID":"DEA1D"},"id":"DEA1D"},{"type":"Point","coordinates":[6.3412,51.3019],"properties":{"NUTS_ID":"DEA1E","LEVL_CODE":3,"CNTR_CODE":"DE","NUTS_NAME":"Viersen","NAME_LATN":"Viersen","FID":"DEA1E"},"id":"DEA1E"},{"type":"Point","coordinates":[6.6207,51.6294],"properties":{"NUTS_ID":"DEA1F","LEVL_CODE":3,"CNTR_CODE":"DE","NUTS_NAME":"Wesel","NAME_LATN":"Wesel","FID":"DEA1F"},"id":"DEA1F"},{"type":"Point","coordinates":[7.1159,50.7139],"properties":{"NUTS_ID":"DEA22","LEVL_CODE":3,"CNTR_CODE":"DE","NUTS_NAME":"Bonn, Kreisfreie Stadt","NAME_LATN":"Bonn, Kreisfreie Stadt","FID":"DEA22"},"id":"DEA22"},{"type":"Point","coordinates":[6.9703,50.937],"properties":{"NUTS_ID":"DEA23","LEVL_CODE":3,"CNTR_CODE":"DE","NUTS_NAME":"Köln, Kreisfreie Stadt","NAME_LATN":"Köln, Kreisfreie Stadt","FID":"DEA23"},"id":"DEA23"},{"type":"Point","coordinates":[7.0079,51.0536],"properties":{"NUTS_ID":"DEA24","LEVL_CODE":3,"CNTR_CODE":"DE","NUTS_NAME":"Leverkusen, Kreisfreie Stadt","NAME_LATN":"Leverkusen, Kreisfreie Stadt","FID":"DEA24"},"id":"DEA24"},{"type":"Point","coordinates":[6.4608,50.8232],"properties":{"NUTS_ID":"DEA26","LEVL_CODE":3,"CNTR_CODE":"DE","NUTS_NAME":"Düren","NAME_LATN":"Düren","FID":"DEA26"},"id":"DEA26"},{"type":"Point","coordinates":[6.7448,50.8799],"properties":{"NUTS_ID":"DEA27","LEVL_CODE":3,"CNTR_CODE":"DE","NUTS_NAME":"Rhein-Erft-Kreis","NAME_LATN":"Rhein-Erft-Kreis","FID":"DEA27"},"id":"DEA27"},{"type":"Point","coordinates":[6.6252,50.5299],"properties":{"NUTS_ID":"DEA28","LEVL_CODE":3,"CNTR_CODE":"DE","NUTS_NAME":"Euskirchen","NAME_LATN":"Euskirchen","FID":"DEA28"},"id":"DEA28"},{"type":"Point","coordinates":[6.1721,51.0489],"properties":{"NUTS_ID":"DEA29","LEVL_CODE":3,"CNTR_CODE":"DE","NUTS_NAME":"Heinsberg","NAME_LATN":"Heinsberg","FID":"DEA29"},"id":"DEA29"},{"type":"Point","coordinates":[7.5167,51.0127],"properties":{"NUTS_ID":"DEA2A","LEVL_CODE":3,"CNTR_CODE":"DE","NUTS_NAME":"Oberbergischer Kreis","NAME_LATN":"Oberbergischer Kreis","FID":"DEA2A"},"id":"DEA2A"},{"type":"Point","coordinates":[7.1953,51.018],"properties":{"NUTS_ID":"DEA2B","LEVL_CODE":3,"CNTR_CODE":"DE","NUTS_NAME":"Rheinisch-Bergischer Kreis","NAME_LATN":"Rheinisch-Bergischer Kreis","FID":"DEA2B"},"id":"DEA2B"},{"type":"Point","coordinates":[7.2656,50.7756],"properties":{"NUTS_ID":"DEA2C","LEVL_CODE":3,"CNTR_CODE":"DE","NUTS_NAME":"Rhein-Sieg-Kreis","NAME_LATN":"Rhein-Sieg-Kreis","FID":"DEA2C"},"id":"DEA2C"},{"type":"Point","coordinates":[6.2158,50.728],"properties":{"NUTS_ID":"DEA2D","LEVL_CODE":3,"CNTR_CODE":"DE","NUTS_NAME":"Städteregion Aachen","NAME_LATN":"Städteregion Aachen","FID":"DEA2D"},"id":"DEA2D"},{"type":"Point","coordinates":[6.8957,51.572],"properties":{"NUTS_ID":"DEA31","LEVL_CODE":3,"CNTR_CODE":"DE","NUTS_NAME":"Bottrop, Kreisfreie Stadt","NAME_LATN":"Bottrop, Kreisfreie Stadt","FID":"DEA31"},"id":"DEA31"},{"type":"Point","coordinates":[7.0713,51.554],"properties":{"NUTS_ID":"DEA32","LEVL_CODE":3,"CNTR_CODE":"DE","NUTS_NAME":"Gelsenkirchen, Kreisfreie Stadt","NAME_LATN":"Gelsenkirchen, Kreisfreie Stadt","FID":"DEA32"},"id":"DEA32"},{"type":"Point","coordinates":[7.6234,51.9536],"properties":{"NUTS_ID":"DEA33","LEVL_CODE":3,"CNTR_CODE":"DE","NUTS_NAME":"Münster, Kreisfreie Stadt","NAME_LATN":"Münster, Kreisfreie Stadt","FID":"DEA33"},"id":"DEA33"},{"type":"Point","coordinates":[6.9188,51.9355],"properties":{"NUTS_ID":"DEA34","LEVL_CODE":3,"CNTR_CODE":"DE","NUTS_NAME":"Borken","NAME_LATN":"Borken","FID":"DEA34"},"id":"DEA34"},{"type":"Point","coordinates":[7.3946,51.848],"properties":{"NUTS_ID":"DEA35","LEVL_CODE":3,"CNTR_CODE":"DE","NUTS_NAME":"Coesfeld","NAME_LATN":"Coesfeld","FID":"DEA35"},"id":"DEA35"},{"type":"Point","coordinates":[7.1771,51.687],"properties":{"NUTS_ID":"DEA36","LEVL_CODE":3,"CNTR_CODE":"DE","NUTS_NAME":"Recklinghausen","NAME_LATN":"Recklinghausen","FID":"DEA36"},"id":"DEA36"},{"type":"Point","coordinates":[7.5594,52.2092],"properties":{"NUTS_ID":"DEA37","LEVL_CODE":3,"CNTR_CODE":"DE","NUTS_NAME":"Steinfurt","NAME_LATN":"Steinfurt","FID":"DEA37"},"id":"DEA37"},{"type":"Point","coordinates":[7.9628,51.8811],"properties":{"NUTS_ID":"DEA38","LEVL_CODE":3,"CNTR_CODE":"DE","NUTS_NAME":"Warendorf","NAME_LATN":"Warendorf","FID":"DEA38"},"id":"DEA38"},{"type":"Point","coordinates":[8.5203,52.0183],"properties":{"NUTS_ID":"DEA41","LEVL_CODE":3,"CNTR_CODE":"DE","NUTS_NAME":"Bielefeld, Kreisfreie Stadt","NAME_LATN":"Bielefeld, Kreisfreie Stadt","FID":"DEA41"},"id":"DEA41"},{"type":"Point","coordinates":[8.415,51.8598],"properties":{"NUTS_ID":"DEA42","LEVL_CODE":3,"CNTR_CODE":"DE","NUTS_NAME":"Gütersloh","NAME_LATN":"Gütersloh","FID":"DEA42"},"id":"DEA42"},{"type":"Point","coordinates":[8.6441,52.1675],"properties":{"NUTS_ID":"DEA43","LEVL_CODE":3,"CNTR_CODE":"DE","NUTS_NAME":"Herford","NAME_LATN":"Herford","FID":"DEA43"},"id":"DEA43"},{"type":"Point","coordinates":[9.1829,51.6622],"properties":{"NUTS_ID":"DEA44","LEVL_CODE":3,"CNTR_CODE":"DE","NUTS_NAME":"Höxter","NAME_LATN":"Höxter","FID":"DEA44"},"id":"DEA44"},{"type":"Point","coordinates":[8.9736,52.0111],"properties":{"NUTS_ID":"DEA45","LEVL_CODE":3,"CNTR_CODE":"DE","NUTS_NAME":"Lippe","NAME_LATN":"Lippe","FID":"DEA45"},"id":"DEA45"},{"type":"Point","coordinates":[8.7208,52.3197],"properties":{"NUTS_ID":"DEA46","LEVL_CODE":3,"CNTR_CODE":"DE","NUTS_NAME":"Minden-Lübbecke","NAME_LATN":"Minden-Lübbecke","FID":"DEA46"},"id":"DEA46"},{"type":"Point","coordinates":[8.71,51.6583],"properties":{"NUTS_ID":"DEA47","LEVL_CODE":3,"CNTR_CODE":"DE","NUTS_NAME":"Paderborn","NAME_LATN":"Paderborn","FID":"DEA47"},"id":"DEA47"},{"type":"Point","coordinates":[7.2277,51.4648],"properties":{"NUTS_ID":"DEA51","LEVL_CODE":3,"CNTR_CODE":"DE","NUTS_NAME":"Bochum, Kreisfreie Stadt","NAME_LATN":"Bochum, Kreisfreie Stadt","FID":"DEA51"},"id":"DEA51"},{"type":"Point","coordinates":[7.471,51.5021],"properties":{"NUTS_ID":"DEA52","LEVL_CODE":3,"CNTR_CODE":"DE","NUTS_NAME":"Dortmund, Kreisfreie Stadt","NAME_LATN":"Dortmund, Kreisfreie Stadt","FID":"DEA52"},"id":"DEA52"},{"type":"Point","coordinates":[7.4976,51.3482],"properties":{"NUTS_ID":"DEA53","LEVL_CODE":3,"CNTR_CODE":"DE","NUTS_NAME":"Hagen, Kreisfreie Stadt","NAME_LATN":"Hagen, Kreisfreie Stadt","FID":"DEA53"},"id":"DEA53"},{"type":"Point","coordinates":[7.8369,51.6585],"properties":{"NUTS_ID":"DEA54","LEVL_CODE":3,"CNTR_CODE":"DE","NUTS_NAME":"Hamm, Kreisfreie Stadt","NAME_LATN":"Hamm, Kreisfreie Stadt","FID":"DEA54"},"id":"DEA54"},{"type":"Point","coordinates":[7.2098,51.5396],"properties":{"NUTS_ID":"DEA55","LEVL_CODE":3,"CNTR_CODE":"DE","NUTS_NAME":"Herne, Kreisfreie Stadt","NAME_LATN":"Herne, Kreisfreie Stadt","FID":"DEA55"},"id":"DEA55"},{"type":"Point","coordinates":[7.3134,51.349],"properties":{"NUTS_ID":"DEA56","LEVL_CODE":3,"CNTR_CODE":"DE","NUTS_NAME":"Ennepe-Ruhr-Kreis","NAME_LATN":"Ennepe-Ruhr-Kreis","FID":"DEA56"},"id":"DEA56"},{"type":"Point","coordinates":[8.4241,51.2753],"properties":{"NUTS_ID":"DEA57","LEVL_CODE":3,"CNTR_CODE":"DE","NUTS_NAME":"Hochsauerlandkreis","NAME_LATN":"Hochsauerlandkreis","FID":"DEA57"},"id":"DEA57"},{"type":"Point","coordinates":[7.6818,51.2761],"properties":{"NUTS_ID":"DEA58","LEVL_CODE":3,"CNTR_CODE":"DE","NUTS_NAME":"Märkischer Kreis","NAME_LATN":"Märkischer Kreis","FID":"DEA58"},"id":"DEA58"},{"type":"Point","coordinates":[7.9712,51.1374],"properties":{"NUTS_ID":"DEA59","LEVL_CODE":3,"CNTR_CODE":"DE","NUTS_NAME":"Olpe","NAME_LATN":"Olpe","FID":"DEA59"},"id":"DEA59"},{"type":"Point","coordinates":[8.1899,50.9249],"properties":{"NUTS_ID":"DEA5A","LEVL_CODE":3,"CNTR_CODE":"DE","NUTS_NAME":"Siegen-Wittgenstein","NAME_LATN":"Siegen-Wittgenstein","FID":"DEA5A"},"id":"DEA5A"},{"type":"Point","coordinates":[8.2088,51.5345],"properties":{"NUTS_ID":"DEA5B","LEVL_CODE":3,"CNTR_CODE":"DE","NUTS_NAME":"Soest","NAME_LATN":"Soest","FID":"DEA5B"},"id":"DEA5B"},{"type":"Point","coordinates":[7.6344,51.4874],"properties":{"NUTS_ID":"DEA5C","LEVL_CODE":3,"CNTR_CODE":"DE","NUTS_NAME":"Unna","NAME_LATN":"Unna","FID":"DEA5C"},"id":"DEA5C"},{"type":"Point","coordinates":[7.5796,50.3485],"properties":{"NUTS_ID":"DEB11","LEVL_CODE":3,"CNTR_CODE":"DE","NUTS_NAME":"Koblenz, Kreisfreie Stadt","NAME_LATN":"Koblenz, Kreisfreie Stadt","FID":"DEB11"},"id":"DEB11"},